station_id,latitude,longitude,company_id,charger_type,rated_power_kw,station_connectors,operator_name
68c7fca1e3bba5e49ec90847dcdd456b,51.516201,-0.157996,5,Slow,3.7,"('Type2',)",BP Pulse
bfbbf188d7ddb47c10611fe4f4b2ed13,51.46407,-0.11697,5,Slow,7.0,"('Type2',)",BP Pulse
4af1462cabaeb4c5fa408bda1d510366,51.50463,-0.11455,5,Slow,7.0,"('Type2',)",BP Pulse
7ab3ed355c7f45f418e605289d3ea253,51.46346,-0.14365,5,Slow,7.0,"('Type2',)",BP Pulse
ca4c987e8d94252b018f6eaaa893e022,51.46895,-0.12911,5,Slow,7.0,"('Type2',)",BP Pulse
727ff17e85283fe859b1c46adae1094a,51.45378,-0.137,5,Slow,7.0,"('Type2',)",BP Pulse
89650278562612d94fd3a5b4f981a513,51.50542,-0.11099,5,Slow,7.0,"('Type2',)",BP Pulse
6f69d9dade187609fb97bbbe349b9147,51.509472,-0.14487,5,Slow,3.0,"('UK 3-pin',)",BP Pulse
c1a4bf4288eebb76ba3a3fc30302747a,51.521141,-0.150947,5,Slow,7.0,"('Type2',)",BP Pulse
1d9aa17d1d1fce9a1a133601a2ef8296,51.52113,-0.151084,5,Slow,7.0,"('Type2',)",BP Pulse
6103607c18d3a0e23e80ed60835b2e9c,51.494862,-0.13817,5,Slow,7.0,"('Type2',)",BP Pulse
2d9e9a27caab97a9899ba3076caa5f49,51.494862,-0.13817,5,Slow,7.0,"('Type2',)",BP Pulse
03d0bc115df730be6e44c5366f2c78d3,51.507729,-0.13457,5,Slow,7.0,"('Type2',)",BP Pulse
bd47190364d527b71e2285d511871036,51.507729,-0.13457,5,Slow,7.0,"('Type2',)",BP Pulse
2f96a6bd87ff056fa63b286cb3899f30,51.507729,-0.13457,5,Slow,7.0,"('Type2',)",BP Pulse
4f5a97cf06cf69028997db51d8726d28,51.515286,-0.116644,10,Slow,3.0,"('UK 3-pin',)",POD Point
4f5a97cf06cf69028997db51d8726d28,51.515286,-0.116644,11,Slow,3.0,"('UK 3-pin',)",POD Point
dc0439caeb74ffc2795571af07a7eab1,51.487717,-0.142074,10,Slow,3.0,"('UK 3-pin',)",POD Point
dc0439caeb74ffc2795571af07a7eab1,51.487717,-0.142074,11,Slow,3.0,"('UK 3-pin',)",POD Point
51f3eb940fd73a19119534c063967bff,51.493,-0.202,10,Slow,3.0,"('UK 3-pin',)",POD Point
51f3eb940fd73a19119534c063967bff,51.493,-0.202,11,Slow,3.0,"('UK 3-pin',)",POD Point
6a52c5f0d8176dbd325654259c27a570,51.549778,-0.045488,10,Slow,3.7,"('UK 3-pin',)",POD Point
6a52c5f0d8176dbd325654259c27a570,51.549778,-0.045488,11,Slow,3.7,"('UK 3-pin',)",POD Point
8b18488349afbee6eb51551100fda776,51.5137,-0.020948,10,Slow,7.0,"('Type2', 'UK 3-pin')",POD Point
8b18488349afbee6eb51551100fda776,51.5137,-0.020948,11,Slow,7.0,"('Type2', 'UK 3-pin')",POD Point
beb5dfa1d8e6812f2b520664bd77aff8,51.538341,-0.141245,10,Slow,7.0,"('Type2', 'UK 3-pin')",POD Point
beb5dfa1d8e6812f2b520664bd77aff8,51.538341,-0.141245,11,Slow,7.0,"('Type2', 'UK 3-pin')",POD Point
ff71cce3c3f1a3074a74b7f2f8b2ffad,51.513699,-0.02102,10,Slow,7.0,"('Type2', 'UK 3-pin')",POD Point
ff71cce3c3f1a3074a74b7f2f8b2ffad,51.513699,-0.02102,11,Slow,7.0,"('Type2', 'UK 3-pin')",POD Point
7d5fe9a6097c89cda3ce6a5b1de4dd15,51.513704,-0.021053,10,Slow,7.0,"('Type2', 'UK 3-pin')",POD Point
7d5fe9a6097c89cda3ce6a5b1de4dd15,51.513704,-0.021053,11,Slow,7.0,"('Type2', 'UK 3-pin')",POD Point
8484665c6ae3b6ace2e827e3355da2dd,51.5137,-0.021098,10,Slow,7.0,"('Type2', 'UK 3-pin')",POD Point
8484665c6ae3b6ace2e827e3355da2dd,51.5137,-0.021098,11,Slow,7.0,"('Type2', 'UK 3-pin')",POD Point
8fafae2e188a936fb2758813f7250596,51.513704,-0.021144,10,Slow,7.0,"('Type2', 'UK 3-pin')",POD Point
8fafae2e188a936fb2758813f7250596,51.513704,-0.021144,11,Slow,7.0,"('Type2', 'UK 3-pin')",POD Point
1065941a9c5bd8c49858bca45ab17dd0,51.513724,-0.021179,10,Slow,7.0,"('Type2', 'UK 3-pin')",POD Point
1065941a9c5bd8c49858bca45ab17dd0,51.513724,-0.021179,11,Slow,7.0,"('Type2', 'UK 3-pin')",POD Point
5c5451c803ae87e775d7cfe3b8a31180,51.513715,-0.021211,10,Slow,7.0,"('Type2', 'UK 3-pin')",POD Point
5c5451c803ae87e775d7cfe3b8a31180,51.513715,-0.021211,11,Slow,7.0,"('Type2', 'UK 3-pin')",POD Point
366893c13ae0d73de4dfeaf64a9d86dd,51.513707,-0.02123,10,Slow,7.0,"('Type2', 'UK 3-pin')",POD Point
366893c13ae0d73de4dfeaf64a9d86dd,51.513707,-0.02123,11,Slow,7.0,"('Type2', 'UK 3-pin')",POD Point
0c49e4b09eff54a771ea5ae4f10714ec,51.512744,-0.014284,10,Slow,7.0,"('Type2',)",POD Point
0c49e4b09eff54a771ea5ae4f10714ec,51.512744,-0.014284,11,Slow,7.0,"('Type2',)",POD Point
e18a081756e4c0d0dd76c53b75e678bc,51.492651,-0.201811,10,Slow,3.7,"('Type2',)",POD Point
e18a081756e4c0d0dd76c53b75e678bc,51.492651,-0.201811,11,Slow,3.7,"('Type2',)",POD Point
0d25c734802cf768395634fa9673ac03,51.53605,-0.125664,10,Slow,7.0,"('Type2',)",POD Point
0d25c734802cf768395634fa9673ac03,51.53605,-0.125664,11,Slow,7.0,"('Type2',)",POD Point
80d01bdc9c0bdc63c72fd4cbba022139,51.536322,-0.125542,10,Slow,7.0,"('Type2',)",POD Point
80d01bdc9c0bdc63c72fd4cbba022139,51.536322,-0.125542,11,Slow,7.0,"('Type2',)",POD Point
f50ebe282573f99c89a992894a791ba1,51.536569,-0.125452,10,Slow,7.0,"('Type2',)",POD Point
f50ebe282573f99c89a992894a791ba1,51.536569,-0.125452,11,Slow,7.0,"('Type2',)",POD Point
184fd7ecdd7b465a16a83afdabfd15c5,51.536992,-0.125316,10,Slow,7.0,"('Type2',)",POD Point
184fd7ecdd7b465a16a83afdabfd15c5,51.536992,-0.125316,11,Slow,7.0,"('Type2',)",POD Point
9f73acb5c4142794bb97dfdb4585c560,51.537245,-0.125179,10,Slow,7.0,"('Type2',)",POD Point
9f73acb5c4142794bb97dfdb4585c560,51.537245,-0.125179,11,Slow,7.0,"('Type2',)",POD Point
fa571e649aeb8ad04cbb24aadafadb1e,51.540259,-0.141412,10,Slow,7.0,"('Type2',)",POD Point
fa571e649aeb8ad04cbb24aadafadb1e,51.540259,-0.141412,11,Slow,7.0,"('Type2',)",POD Point
6d99bcd116b9e12ff6f859b399c04b97,51.540221,-0.141349,10,Slow,7.0,"('Type2',)",POD Point
6d99bcd116b9e12ff6f859b399c04b97,51.540221,-0.141349,11,Slow,7.0,"('Type2',)",POD Point
18c6c4a1ac002a391f90c62a8da3ba99,51.534122,-0.108674,10,Slow,7.0,"('Type2',)",POD Point
18c6c4a1ac002a391f90c62a8da3ba99,51.534122,-0.108674,11,Slow,7.0,"('Type2',)",POD Point
c8d1f991ae3c1511ed858a5b2eef81f6,51.53412,-0.108745,10,Slow,7.0,"('Type2',)",POD Point
c8d1f991ae3c1511ed858a5b2eef81f6,51.53412,-0.108745,11,Slow,7.0,"('Type2',)",POD Point
9689fbb935b09cd2b825dec73bfb5993,51.52367,-0.127527,10,Fast,22.0,"('Type2',)",POD Point
9689fbb935b09cd2b825dec73bfb5993,51.52367,-0.127527,11,Fast,22.0,"('Type2',)",POD Point
2a7cdd61b5e39b4de176c2bd4def4811,51.523707,-0.127429,10,Fast,22.0,"('Type2',)",POD Point
2a7cdd61b5e39b4de176c2bd4def4811,51.523707,-0.127429,11,Fast,22.0,"('Type2',)",POD Point
f1565b8fcd6ef7832001d764e89abca5,51.522299,-0.123915,10,Fast,22.0,"('Type2',)",POD Point
f1565b8fcd6ef7832001d764e89abca5,51.522299,-0.123915,11,Fast,22.0,"('Type2',)",POD Point
7e05c692d4caf2bba2151187845ad69b,51.523687,-0.127481,10,Fast,22.0,"('Type2',)",POD Point
7e05c692d4caf2bba2151187845ad69b,51.523687,-0.127481,11,Fast,22.0,"('Type2',)",POD Point
292d90bcc86fe4a292a044ee2b769111,51.523654,-0.127568,10,Fast,22.0,"('Type2',)",POD Point
292d90bcc86fe4a292a044ee2b769111,51.523654,-0.127568,11,Fast,22.0,"('Type2',)",POD Point
1b2576dc7715a014fc207453d1e52667,51.497297,-0.139462,10,Slow,7.0,"('Type2',)",POD Point
1b2576dc7715a014fc207453d1e52667,51.497297,-0.139462,11,Slow,7.0,"('Type2',)",POD Point
cd926bd3fc532373b0af79b4aa8767e3,51.507212,-0.113625,10,Slow,7.0,"('Type2',)",POD Point
cd926bd3fc532373b0af79b4aa8767e3,51.507212,-0.113625,11,Slow,7.0,"('Type2',)",POD Point
92a4d8e6937cb8dd6f5d65b53d16c1be,51.507186,-0.113685,10,Slow,7.0,"('Type2',)",POD Point
92a4d8e6937cb8dd6f5d65b53d16c1be,51.507186,-0.113685,11,Slow,7.0,"('Type2',)",POD Point
f57b56757d964c28edcd8aacee7e9618,51.501202,-0.162545,10,Slow,7.0,"('Type2',)",POD Point
f57b56757d964c28edcd8aacee7e9618,51.501202,-0.162545,11,Slow,7.0,"('Type2',)",POD Point
0207e1d5c41814b436110e5d7b767dd8,51.51029,-0.155519,10,Slow,7.0,"('Type2',)",POD Point
0207e1d5c41814b436110e5d7b767dd8,51.51029,-0.155519,11,Slow,7.0,"('Type2',)",POD Point
c600aed790cd1367661aa24eb24ee7f0,51.494824,-0.130405,10,Slow,7.0,"('Type2',)",POD Point
c600aed790cd1367661aa24eb24ee7f0,51.494824,-0.130405,11,Slow,7.0,"('Type2',)",POD Point
144096816d3812088033a4c9b3838dac,51.507151,-0.113777,10,Fast,22.0,"('Type2',)",POD Point
144096816d3812088033a4c9b3838dac,51.507151,-0.113777,11,Fast,22.0,"('Type2',)",POD Point
0c7f65251d8ddb6ec1640bef36f94109,51.497912,-0.136349,10,Slow,3.7,"('Type2',)",POD Point
0c7f65251d8ddb6ec1640bef36f94109,51.497912,-0.136349,11,Slow,3.7,"('Type2',)",POD Point
ead093ca38b5d3210738fe7b53d5f6d9,51.515375,-0.116745,10,Slow,7.0,"('Type2',)",POD Point
ead093ca38b5d3210738fe7b53d5f6d9,51.515375,-0.116745,11,Slow,7.0,"('Type2',)",POD Point
076ba05a45d179132cdec4c2c55591bb,51.49792,-0.136288,10,Slow,3.7,"('Type2',)",POD Point
076ba05a45d179132cdec4c2c55591bb,51.49792,-0.136288,11,Slow,3.7,"('Type2',)",POD Point
1a1ec01f6458adecccb605200d42f47c,51.506477,-0.12377,10,Slow,7.0,"('Type2',)",POD Point
1a1ec01f6458adecccb605200d42f47c,51.506477,-0.12377,11,Slow,7.0,"('Type2',)",POD Point
a6a8f6bad925fe4167d82a398acc0d10,51.522315,-0.123836,10,Fast,22.0,"('Type2',)",POD Point
a6a8f6bad925fe4167d82a398acc0d10,51.522315,-0.123836,11,Fast,22.0,"('Type2',)",POD Point
dfd7003b99a2c504402a0b89dc258c99,51.522323,-0.123798,10,Fast,22.0,"('Type2',)",POD Point
dfd7003b99a2c504402a0b89dc258c99,51.522323,-0.123798,11,Fast,22.0,"('Type2',)",POD Point
21af5f66fee3029846d201baef50415d,51.522307,-0.123872,10,Fast,22.0,"('Type2',)",POD Point
21af5f66fee3029846d201baef50415d,51.522307,-0.123872,11,Fast,22.0,"('Type2',)",POD Point
64b55721af8451c8a5e2d5a1a27876a2,51.495743,-0.026421,10,Slow,7.0,"('Type2',)",POD Point
64b55721af8451c8a5e2d5a1a27876a2,51.495743,-0.026421,11,Slow,7.0,"('Type2',)",POD Point
55385df83c377f1b7659f1b62477443d,51.495743,-0.026421,10,Slow,7.0,"('Type2',)",POD Point
55385df83c377f1b7659f1b62477443d,51.495743,-0.026421,11,Slow,7.0,"('Type2',)",POD Point
8f324d539761a3b21c773e02ea006d45,51.52659,-0.008772,10,Slow,7.0,"('Type2',)",POD Point
8f324d539761a3b21c773e02ea006d45,51.52659,-0.008772,11,Slow,7.0,"('Type2',)",POD Point
6558a36e80b682c4dfd415cacfd2c17d,51.52659,-0.008772,10,Slow,7.0,"('Type2',)",POD Point
6558a36e80b682c4dfd415cacfd2c17d,51.52659,-0.008772,11,Slow,7.0,"('Type2',)",POD Point
7226b79b1ddf90da94ad10bbc8e33466,51.497693,-0.223658,10,Slow,7.0,"('Type2',)",POD Point
7226b79b1ddf90da94ad10bbc8e33466,51.497693,-0.223658,11,Slow,7.0,"('Type2',)",POD Point
1d621120a54fb648cb3d036bb353babe,51.497693,-0.223658,10,Slow,7.0,"('Type2',)",POD Point
1d621120a54fb648cb3d036bb353babe,51.497693,-0.223658,11,Slow,7.0,"('Type2',)",POD Point
3c6a7d9835f5c2f074c0b0e71e3a8e4e,51.508696,-0.080927,10,Slow,7.0,"('Type2',)",POD Point
3c6a7d9835f5c2f074c0b0e71e3a8e4e,51.508696,-0.080927,11,Slow,7.0,"('Type2',)",POD Point
47f5ddcafc69b192c508530d538c39c9,51.514208,-0.157273,10,Slow,7.0,"('Type2',)",POD Point
47f5ddcafc69b192c508530d538c39c9,51.514208,-0.157273,11,Slow,7.0,"('Type2',)",POD Point
b3fd08804ea4de120cdd37b34a5d2bd9,51.514208,-0.157273,10,Slow,7.0,"('Type2',)",POD Point
b3fd08804ea4de120cdd37b34a5d2bd9,51.514208,-0.157273,11,Slow,7.0,"('Type2',)",POD Point
5dcb3acfb237e7af45f60b083a2b4305,51.507202,-0.026712,7,Rapid,50.0,"('CCS2', 'CHAdeMO', 'Type2')",The GeniePoint Network
5dcb3acfb237e7af45f60b083a2b4305,51.507202,-0.026712,8,Rapid,50.0,"('CCS2', 'CHAdeMO', 'Type2')",The GeniePoint Network
0d124848a0ea943f34d3a85bf3599943,51.507202,-0.026712,7,Rapid,50.0,"('CHAdeMO',)",The GeniePoint Network
0d124848a0ea943f34d3a85bf3599943,51.507202,-0.026712,8,Rapid,50.0,"('CHAdeMO',)",The GeniePoint Network
44f89aa962e57f9f1cd9ec2b53284dad,51.542093,-0.149774,7,Rapid,50.0,"('CCS2', 'CHAdeMO', 'Type2')",The GeniePoint Network
44f89aa962e57f9f1cd9ec2b53284dad,51.542093,-0.149774,8,Rapid,50.0,"('CCS2', 'CHAdeMO', 'Type2')",The GeniePoint Network
3771f41dc735e7404cd56cdebf7fea22,51.509946,-0.005424,7,Slow,7.0,"('Type2',)",The GeniePoint Network
3771f41dc735e7404cd56cdebf7fea22,51.509946,-0.005424,8,Slow,7.0,"('Type2',)",The GeniePoint Network
d5f691643a90f747709a37dd16dc5e87,51.509946,-0.005424,7,Slow,7.0,"('Type2',)",The GeniePoint Network
d5f691643a90f747709a37dd16dc5e87,51.509946,-0.005424,8,Slow,7.0,"('Type2',)",The GeniePoint Network
95386242175e91cc85bf7cf608b54638,51.509946,-0.005424,7,Slow,7.0,"('Type2',)",The GeniePoint Network
95386242175e91cc85bf7cf608b54638,51.509946,-0.005424,8,Slow,7.0,"('Type2',)",The GeniePoint Network
54bcdb63fab2b188f3205d909fac27ac,51.509946,-0.005424,7,Rapid,50.0,"('CCS2', 'CHAdeMO', 'Type2')",The GeniePoint Network
54bcdb63fab2b188f3205d909fac27ac,51.509946,-0.005424,8,Rapid,50.0,"('CCS2', 'CHAdeMO', 'Type2')",The GeniePoint Network
812e0df65eb6f409d6509df3a055ccc5,51.545497,-0.077537,7,Rapid,50.0,"('CCS2', 'CHAdeMO', 'Type2')",The GeniePoint Network
812e0df65eb6f409d6509df3a055ccc5,51.545497,-0.077537,8,Rapid,50.0,"('CCS2', 'CHAdeMO', 'Type2')",The GeniePoint Network
1bb159f91c000a522b1ca970bf7644d2,51.5265,-0.07763,7,Rapid,50.0,"('CCS2', 'CHAdeMO', 'Type2')",The GeniePoint Network
1bb159f91c000a522b1ca970bf7644d2,51.5265,-0.07763,8,Rapid,50.0,"('CCS2', 'CHAdeMO', 'Type2')",The GeniePoint Network
d2677ede077bed4b90d8ab03c3373183,51.544714,-0.057088,7,Rapid,50.0,"('CCS2', 'CHAdeMO', 'Type2')",The GeniePoint Network
d2677ede077bed4b90d8ab03c3373183,51.544714,-0.057088,8,Rapid,50.0,"('CCS2', 'CHAdeMO', 'Type2')",The GeniePoint Network
31128406e43c4606c19a02b5614e4571,51.509946,-0.005424,7,Slow,7.0,"('Type2',)",The GeniePoint Network
31128406e43c4606c19a02b5614e4571,51.509946,-0.005424,8,Slow,7.0,"('Type2',)",The GeniePoint Network
d88b3bdeeb6e9b3268490211e257480c,51.52269,-0.14275,7,Slow,7.0,"('Type2',)",The GeniePoint Network
d88b3bdeeb6e9b3268490211e257480c,51.52269,-0.14275,8,Slow,7.0,"('Type2',)",The GeniePoint Network
26d7380e67d377820751431c8078bb83,51.507172,-0.026707,7,Rapid,50.0,"('CCS2', 'CHAdeMO', 'Type2')",The GeniePoint Network
26d7380e67d377820751431c8078bb83,51.507172,-0.026707,8,Rapid,50.0,"('CCS2', 'CHAdeMO', 'Type2')",The GeniePoint Network
399ca2cae756946bfc919c8a00bbe304,51.486733,-0.075424,4,Slow,3.7,"('Type2',)",Char.gy
0cc36676967cb7edbb302fb4aafc34bc,51.500953,-0.083115,4,Slow,3.7,"('Type2',)",Char.gy
9ece71688524018ec6945ed5ac7c5245,51.503456,-0.098072,4,Slow,5.0,"('Type2',)",Char.gy
8013c5ea1457c21c9bbebddae680c2ab,51.499423,-0.103565,4,Slow,5.0,"('Type2',)",Char.gy
d045762be9be6e356ff55b6d24cbd314,51.495758,-0.097071,4,Slow,4.8,"('Type2',)",Char.gy
ee2eedca83dd243e0b972e70b3ff28d5,51.496185,-0.086764,4,Slow,4.8,"('Type2',)",Char.gy
aae0d20fe138ea808e60f77f714c251e,51.50071,-0.068971,4,Slow,5.0,"('Type2',)",Char.gy
bba74a67c37f859b50c1d3155652a27b,51.499238,-0.103779,4,Slow,5.0,"('Type2',)",Char.gy
9c110fa312e5223724a41c1dc4fabcb4,51.50187,-0.101994,4,Slow,5.0,"('Type2',)",Char.gy
fb42cfc88e16f79a2b3cb9fbcc1ea8c5,51.487307,-0.073002,4,Slow,3.7,"('Type2',)",Char.gy
11b9751478fa8741d4935017eeb51b04,51.498249,-0.086924,4,Slow,3.7,"('Type2',)",Char.gy
37ef41c2510a35314b7deb1b5b167e8f,51.500989,-0.100034,4,Slow,3.7,"('Type2',)",Char.gy
8bd7a497d7c2f63f6dd64dbda8a0a781,51.497282,-0.086563,4,Slow,3.7,"('Type2',)",Char.gy
92a57da0ff3323f27fec39ade78d3db8,51.49941,-0.1021,4,Slow,3.7,"('Type2',)",Char.gy
cf92409f112c49c4893e1d78b7b14a5b,51.495249,-0.087544,4,Slow,3.7,"('Type2',)",Char.gy
f90ebc567e064d02b8d7b21c91f76ffa,51.490688,-0.073921,4,Slow,3.7,"('Type2',)",Char.gy
2833be9fd49a063a36d3de1e5e28abc4,51.497235,-0.105256,4,Slow,5.0,"('Type2',)",Char.gy
db44eb3ee4900a08b21e9f2ff8b74b12,51.503257,-0.10312,4,Slow,3.7,"('Type2',)",Char.gy
05c49d8ad656b7f9435f6371de69d41f,51.501429,-0.106493,4,Slow,3.7,"('Type2',)",Char.gy
d2e4c90cfa9f7f364387dde842fa8463,51.496089,-0.098015,4,Slow,3.7,"('Type2',)",Char.gy
f809a98d985ac44a9ec8527788eed38e,51.526288,-0.01685,4,Slow,5.0,"('Type2',)",Char.gy
3810ea0abde04c78411cbc776f4aeec1,51.509328,-0.007419,4,Slow,5.0,"('Type2',)",Char.gy
4901dbcdcf1627b67e8aa29958da4af8,51.514545,-0.005532,4,Slow,5.0,"('Type2',)",Char.gy
fbca7c48c185890bd31f538b91ba5fbb,51.514364,-0.019356,4,Slow,5.0,"('Type2',)",Char.gy
1c34bf1931d3009da403034004b2460a,51.514944,0.001077,4,Slow,5.0,"('Type2',)",Char.gy
cb4eccaf040af1e8450a20cfb495a247,51.521586,-0.022955,4,Slow,5.0,"('Type2',)",Char.gy
d054494ddc7a3d0cbea56d03c4217152,51.524172,-0.019225,4,Slow,5.0,"('Type2',)",Char.gy
6dae90f127d0b89f423a13d71d355c01,51.512886,-0.006096,4,Slow,5.0,"('Type2',)",Char.gy
f41f70ae71978d8214b6f5fd1ebc888a,51.514055,-0.004949,4,Slow,5.0,"('Type2',)",Char.gy
f17adbe191290e36a54c0f517a86697c,51.522576,-0.023064,4,Slow,5.0,"('Type2',)",Char.gy
1acf75ecd96a09b5e677c45d7913ffd3,51.513278,-0.003574,4,Slow,5.0,"('Type2',)",Char.gy
39b6d5c1d3c6db11155b975f1b08059f,51.517498,-0.011921,4,Slow,5.0,"('Type2',)",Char.gy
2ce26e1584240d17297b1fdb297987a1,51.499005,-0.007979,4,Slow,5.0,"('Type2',)",Char.gy
d33dfcea8ac4d9f36252b0be9fa37642,51.519347,-0.019187,4,Slow,3.7,"('Type2',)",Char.gy
1362f40a74f105fcd524bdb9bcf53885,51.515937,-0.016013,4,Slow,5.0,"('Type2',)",Char.gy
57b685cee8e83f5550ee4c7e065495b3,51.514536,-0.018248,4,Slow,5.0,"('Type2',)",Char.gy
c5c214e1ede9e0075e0f054230e3b736,51.534706,-0.027341,4,Slow,5.0,"('Type2',)",Char.gy
f020add501125dba9ca6ded72ac45c86,51.513839,-0.016635,4,Slow,5.0,"('Type2',)",Char.gy
dbf0648d4262826f0cc8c073dc5a01b6,51.516298,-0.016191,4,Slow,5.0,"('Type2',)",Char.gy
a0fd70df593b1e22bc87f20590ffdace,51.516628,-0.01755,4,Slow,5.0,"('Type2',)",Char.gy
a900824bc142c3649c0eeffe6d8b066d,51.514863,-0.015997,4,Slow,5.0,"('Type2',)",Char.gy
b74fb97114a32922e01c742355411425,51.512967,-0.017442,4,Slow,5.0,"('Type2',)",Char.gy
95af518bc409baa9f881effcb2294470,51.512653,-0.015778,4,Slow,5.0,"('Type2',)",Char.gy
3f9d68b8f1b5a5aa28bb0ec2afe9ee1b,51.512111,-0.017317,4,Slow,5.0,"('Type2',)",Char.gy
22ed9cda50780af98618b8b70557d397,51.511873,-0.017576,4,Slow,5.0,"('Type2',)",Char.gy
4de26a1c0a3616fc451da00c47be2aa0,51.511556,-0.018251,4,Slow,5.0,"('Type2',)",Char.gy
3cedf820aad09dd5fe2e37df856bb43a,51.511843,-0.016283,4,Slow,5.0,"('Type2',)",Char.gy
25fe42000ef352113656e5370de21606,51.511756,-0.019092,4,Slow,5.0,"('Type2',)",Char.gy
855ccf4bfb668f127591305ff3164c47,51.511351,-0.018519,4,Slow,5.0,"('Type2',)",Char.gy
d72c9bc9b70656f48bae24306e0fa9e1,51.514307,-0.013643,4,Slow,5.0,"('Type2',)",Char.gy
312cb2fc69832bee369c32dcd6928414,51.514157,-0.011268,4,Slow,5.0,"('Type2',)",Char.gy
0828046d2c6e431211d7282df084535a,51.514301,-0.010031,4,Slow,5.0,"('Type2',)",Char.gy
1694c0072e36db25bdbff63b41216335,51.512859,-0.011121,4,Slow,5.0,"('Type2',)",Char.gy
d2ba7bb26e6c6ea91f913607ac93b6ee,51.51217,-0.010192,4,Slow,5.0,"('Type2',)",Char.gy
3b90881795de51a01c917b89b39b7ea5,51.511818,-0.010705,4,Slow,5.0,"('Type2',)",Char.gy
0383442f3e9ecfed86a1b26b7e77ec3b,51.519507,-0.013039,4,Slow,5.0,"('Type2',)",Char.gy
33a8120a1d1259be3983a2e04d5fd12d,51.519002,-0.011749,4,Slow,5.0,"('Type2',)",Char.gy
07bac5d43b1c6a2583ff7ca8f6ac9715,51.502771,-0.007851,4,Slow,5.0,"('Type2',)",Char.gy
960e711f97d1b68fc370bdf4028c9df3,51.498759,-0.010819,4,Slow,5.0,"('Type2',)",Char.gy
de8bf9dbdf2c3be79a604d463d7fb731,51.497682,-0.010154,4,Slow,5.0,"('Type2',)",Char.gy
776652d4ea55c51d8be0d7021199dfbc,51.496585,-0.011453,4,Slow,5.0,"('Type2',)",Char.gy
32b460678e6cce63b88c2cb1d0046603,51.496039,-0.01364,4,Slow,5.0,"('Type2',)",Char.gy
6663a8e6c4eae2aaa947357e1d655e4c,51.495719,-0.011852,4,Slow,5.0,"('Type2',)",Char.gy
721e9c5281a9aef48f6f2edba747d453,51.495857,-0.010381,4,Slow,5.0,"('Type2',)",Char.gy
eaedc91adac4766db1711c0ba60da7f6,51.496954,-0.008062,4,Slow,5.0,"('Type2',)",Char.gy
78c1d193f5e37e96f2537cb3876e7599,51.491832,-0.007222,4,Slow,5.0,"('Type2',)",Char.gy
3b923d6c4bded15610b7f97543ce095a,51.490751,-0.004951,4,Slow,5.0,"('Type2',)",Char.gy
e7fbe8682857b4751f948e0af18de9dd,51.490837,-0.007937,4,Slow,5.0,"('Type2',)",Char.gy
b9b2fd077b3fcd0a14cc60d8addb5a68,51.489839,-0.008463,4,Slow,5.0,"('Type2',)",Char.gy
9f48597b8abf893bd6e44327c7f0e5d9,51.489355,-0.008645,4,Slow,5.0,"('Type2',)",Char.gy
54e668dfe1b4aa20352c25a5b50655c9,51.488938,-0.006435,4,Slow,5.0,"('Type2',)",Char.gy
0996acdd11da6c450be4be93baeea3e8,51.490884,-0.017223,4,Slow,5.0,"('Type2',)",Char.gy
c386493506d9c67ef6701660db27a79e,51.490905,-0.021148,4,Slow,5.0,"('Type2',)",Char.gy
255c8b42091cbcfe8904a04dcf1f307a,51.496368,-0.025549,4,Slow,5.0,"('Type2',)",Char.gy
37b44f571a4697022bab0f733e150fb7,51.50941,-0.02101,4,Slow,5.0,"('Type2',)",Char.gy
8f626b44a3e98f14696103fbd6136837,51.510121,-0.022482,4,Slow,5.0,"('Type2',)",Char.gy
f131cf88305aca943f3052bab0c56ffe,51.511383,-0.029155,4,Slow,5.0,"('Type2',)",Char.gy
60b8f40cfe29f905dba0ddff131b6277,51.514107,-0.0414,4,Slow,5.0,"('Type2',)",Char.gy
22393d4c0c43b1b31bc3cae365051c8f,51.521129,-0.041286,4,Slow,5.0,"('Type2',)",Char.gy
95f17c1aabc6396443c61dada8e40055,51.530666,-0.052118,4,Slow,5.0,"('Type2',)",Char.gy
419323df2aa3e557c892fa6673b81e88,51.531918,-0.04552,4,Slow,5.0,"('Type2',)",Char.gy
2e543618283fba6fe366514e967915fd,51.512805,-0.018326,4,Slow,5.0,"('Type2',)",Char.gy
878182b342ecdb1a868c3e865d6d963d,51.524985,-0.073042,4,Slow,5.0,"('Type2',)",Char.gy
97529958094368490e2f7b653c57baf5,51.528113,-0.074557,4,Slow,5.0,"('Type2',)",Char.gy
002ce1207eebc8842e032af7afe81953,51.51651,-0.032745,4,Slow,5.0,"('Type2',)",Char.gy
da133ff1e842fe72646d1c300e76ef24,51.490883,-0.008283,4,Slow,5.0,"('Type2',)",Char.gy
daa3ea6264815d40f2805589c3f9423d,51.504898,-0.056838,4,Slow,5.0,"('Type2',)",Char.gy
297574e436e7466386da63886436195b,51.505337,-0.058912,4,Slow,5.0,"('Type2',)",Char.gy
0f9c3ffa4c8a9c246139bc4c6b6075c9,51.505193,-0.059709,4,Slow,5.0,"('Type2',)",Char.gy
dbb6289c55dcd28aefa44b7ea18d0592,51.506691,-0.058322,4,Slow,5.0,"('Type2',)",Char.gy
a19e49f070ffa5602842b056bd2964d9,51.50688,-0.064233,4,Slow,5.0,"('Type2',)",Char.gy
e18f3b583c92e1655356ebb3284387e4,51.504159,-0.06115,4,Slow,5.0,"('Type2',)",Char.gy
7b4c087df3c5e639889d92a8805ce910,51.505514,-0.056766,4,Slow,5.0,"('Type2',)",Char.gy
4aea3b9491643885cb9736016ba9375e,51.513785,-0.055089,4,Slow,5.0,"('Type2',)",Char.gy
ebf599ed514bb6c73d4ff13211492ba4,51.514156,-0.066655,4,Slow,5.0,"('Type2',)",Char.gy
ae0e2440b77383410b3e5ce67dad274b,51.50421,-0.064062,4,Slow,5.0,"('Type2',)",Char.gy
b98b8535a8ee6f19a5751263de80ede6,51.513303,-0.072429,4,Slow,5.0,"('Type2',)",Char.gy
3b011e447e50f42d6e5c26e97e439713,51.51053,-0.056817,4,Slow,5.0,"('Type2',)",Char.gy
ad701daa7c23c6cd1c785cbd4d9ee821,51.507174,-0.068026,4,Slow,5.0,"('Type2',)",Char.gy
57888eac5f0e18b216d347ff752bff03,51.489633,-0.067218,4,Slow,5.0,"('Type2',)",Char.gy
fbed2030553a7edb64201625e814453a,51.489551,-0.063906,4,Slow,5.0,"('Type2',)",Char.gy
21e928b66d9e8ffe89b0e981813046e9,51.497793,-0.088869,4,Slow,5.0,"('Type2',)",Char.gy
8e652f6b900c793ec9e6e7d7d4fd1a29,51.498479,-0.08961,4,Slow,5.0,"('Type2',)",Char.gy
cf6fadbf27f90685c5861bd663c50620,51.499711,-0.101787,4,Slow,5.0,"('Type2',)",Char.gy
6c9a5d01bd76129e6858834c33a0db64,51.499275,-0.109041,4,Slow,5.0,"('Type2',)",Char.gy
ef2322c7adfdbec1cc5ea3963e7142cf,51.486171,-0.067986,4,Slow,3.7,"('Type2',)",Char.gy
fc28f257ebcfd3cf20d7bd5dec0d0146,51.497364,-0.104984,4,Slow,5.0,"('Type2',)",Char.gy
d3d0b83accadaea98c2067b460b00c5d,51.495657,-0.094544,4,Slow,5.0,"('Type2',)",Char.gy
ada51ca6301cac81ec27940d852b4eec,51.500597,-0.106474,4,Slow,5.0,"('Type2',)",Char.gy
0f226373ae2723c26570e7b173fd9f98,51.519347,-0.019187,4,Slow,5.0,"('Type2',)",Char.gy
383ee1cde01ed0fb9d3d3086a796737d,51.497897,-0.078268,4,Slow,5.0,"('Type2',)",Char.gy
ecf330bfdcb2a66768c576ed4320400b,51.500421,-0.080232,4,Slow,5.0,"('Type2',)",Char.gy
95dcf53e61de390e805d09c460f2d4b0,51.501351,-0.088854,4,Slow,5.0,"('Type2',)",Char.gy
ac9a78b6c79710a275acec54daf9c842,51.497307,-0.085952,4,Slow,5.0,"('Type2',)",Char.gy
0410ea4a0704705b2cd06eea8508dac1,51.499756,-0.093275,4,Slow,5.0,"('Type2',)",Char.gy
8275981e3f98fbee3fd71683bf872b37,51.49265,-0.074357,4,Slow,5.0,"('Type2',)",Char.gy
768dfe87ec1f4207c75a87a2afa7a1bf,51.490428,-0.073037,4,Slow,5.0,"('Type2',)",Char.gy
c8334d23ed52c35eed2a19d59529e73b,51.491594,-0.067355,4,Slow,5.0,"('Type2',)",Char.gy
f6b1ce229c8c2424944220c3372e4bce,51.49017,-0.067847,4,Slow,5.0,"('Type2',)",Char.gy
c6f0e37708aa56e2e032637dc806eae6,51.49812,-0.086612,4,Slow,5.0,"('Type2',)",Char.gy
f9a88e5706aa73f07185884f024701c7,51.498254,-0.086379,4,Slow,5.0,"('Type2',)",Char.gy
2bade780970fd5134f8bd216b568bc8e,51.491301,-0.067086,4,Slow,5.0,"('Type2',)",Char.gy
e6f12c7fb3719fe303849c00ad9a6367,51.491056,-0.064966,4,Slow,5.0,"('Type2',)",Char.gy
7768300a518fbd5066d77cfefcbad813,51.49052,-0.065131,4,Slow,5.0,"('Type2',)",Char.gy
b81b91432eb4e240bd6b4380bf251a26,51.499821,-0.077735,4,Slow,5.0,"('Type2',)",Char.gy
7b808eaca9e6b0934511c52c095fda47,51.487722,-0.072602,4,Slow,5.0,"('Type2',)",Char.gy
628ea894d5777c9c1cb83cdaabdf885e,51.500979,-0.105336,4,Slow,5.0,"('Type2',)",Char.gy
ade881089c46d1ce94309e553dcca374,51.497358,-0.085202,4,Slow,5.0,"('Type2',)",Char.gy
74e7b1ce575599b73703c9f0835dfe5d,51.497752,-0.08555,4,Slow,5.0,"('Type2',)",Char.gy
414aeb60c70011bdfae360000d9bc353,51.491695,-0.075995,4,Slow,5.0,"('Type2',)",Char.gy
ff0e8fbcd08eb5a733d708301d86f566,51.490981,-0.080381,4,Slow,5.0,"('Type2',)",Char.gy
b4136632d78d1a651b7ca6ec24815851,51.499219,-0.077718,4,Slow,5.0,"('Type2',)",Char.gy
3f4d586989f16f3c4b5eb96e61b99229,51.488684,-0.06848,4,Slow,5.0,"('Type2',)",Char.gy
3b5af90ba8d810c29c80393812f74996,51.494764,-0.073332,4,Slow,5.0,"('Type2',)",Char.gy
14c3eb8771891efffb837717ea96a8c9,51.495301,-0.073531,4,Slow,5.0,"('Type2',)",Char.gy
fe162d10f4c9287841a5ddb4078e2a1b,51.493747,-0.077588,4,Slow,5.0,"('Type2',)",Char.gy
5f8c6e2549c54b0cdc4298f8346d4b5d,51.493234,-0.078267,4,Slow,5.0,"('Type2',)",Char.gy
8b88f7e11c0631e72e3a736d19de1e63,51.494061,-0.073984,4,Slow,5.0,"('Type2',)",Char.gy
841ce14f06fafecddf17e245f3f7aab5,51.493611,-0.073283,4,Slow,3.7,"('Type2',)",Char.gy
074793a29e763bf44c129f41b4c11019,51.500987,-0.087368,4,Slow,5.0,"('Type2',)",Char.gy
0e09649bfed283e8448895d348e69c21,51.496425,-0.078516,4,Slow,5.0,"('Type2',)",Char.gy
7c5922d476a35a17a45b350143a48acb,51.489913,-0.064499,4,Slow,5.0,"('Type2',)",Char.gy
7f7118ce6439d7aae786abe83be0d1e4,51.49072,-0.064308,4,Slow,5.0,"('Type2',)",Char.gy
3719ca0ed3f8e358e01487d303fa52ef,51.487782,-0.06665,4,Slow,3.7,"('Type2',)",Char.gy
5abe28afd9cf0cf736c690cf9bb18627,51.487933,-0.066473,4,Slow,3.7,"('Type2',)",Char.gy
b25e4233f9ec35d91cd261b4550c2530,51.491651,-0.071108,4,Slow,5.0,"('Type2',)",Char.gy
97c9fd1598ed7706a3812338a4a55daa,51.496243,-0.087407,4,Slow,5.0,"('Type2',)",Char.gy
644caa5ff1e3ae07e414b40192f47807,51.496997,-0.08703,4,Slow,5.0,"('Type2',)",Char.gy
d694036094708051dac5cb1c9870a8af,51.497448,-0.088466,4,Slow,5.0,"('Type2',)",Char.gy
1e99a6b6581b3eb34ab022845efc27b5,51.498266,-0.089522,4,Slow,5.0,"('Type2',)",Char.gy
a19fba9e43469b16e3c19ed82cc3bd15,51.498847,-0.090142,4,Slow,5.0,"('Type2',)",Char.gy
c31232d80753ac7d78d5f444c98e2b14,51.499013,-0.090324,4,Slow,5.0,"('Type2',)",Char.gy
99b216eb7fb7202900c580bf0ef5e9d9,51.499034,-0.092456,4,Slow,5.0,"('Type2',)",Char.gy
8733f3f3aa81901405db10480c0e8f06,51.498294,-0.095448,4,Slow,5.0,"('Type2',)",Char.gy
cb56835a0e3afdadf7991351b1730130,51.497365,-0.097691,4,Slow,5.0,"('Type2',)",Char.gy
ab696d49e44b85e99fde42c9a2bd76f1,51.494708,-0.095494,4,Slow,5.0,"('Type2',)",Char.gy
d3735e1f125dd0bdfebafb99f431c863,51.49954,-0.071135,4,Slow,5.0,"('Type2',)",Char.gy
21093f62a9245ac284b7b57425c6e929,51.495044,-0.09512,4,Slow,5.0,"('Type2',)",Char.gy
4c4bf5a7d17f0d7600457f386ce8919e,51.501925,-0.101298,4,Slow,5.0,"('Type2',)",Char.gy
3863055e02771459c127cf082cb9f155,51.502079,-0.102556,4,Slow,5.0,"('Type2',)",Char.gy
8fd794560b7b2ee72762e29544360aec,51.501958,-0.103507,4,Slow,5.0,"('Type2',)",Char.gy
d6edad9c15c50b44d19d2351a8bb89d7,51.501728,-0.101829,4,Slow,5.0,"('Type2',)",Char.gy
d9776b2bbfe3afca23f3a25fecd4c6cd,51.501465,-0.10151,4,Slow,5.0,"('Type2',)",Char.gy
6fcbd2b4f0633121fbad541690fde2cd,51.499938,-0.101305,4,Slow,5.0,"('Type2',)",Char.gy
c49387e72c75242bdcb6cc7d91a56923,51.498328,-0.071637,4,Slow,3.7,"('Type2',)",Char.gy
b85738998b96b3d8ff68ca2e1c41b44e,51.499002,-0.088358,4,Slow,5.0,"('Type2',)",Char.gy
f429814bb8613103609b9cbb1271b00f,51.499659,-0.087468,4,Slow,5.0,"('Type2',)",Char.gy
cdb11b99cedeccaf3a0ac7e26240de61,51.49774,-0.084744,4,Slow,5.0,"('Type2',)",Char.gy
867369e2f25b54ab75b5c92cfaf71795,51.496735,-0.084135,4,Slow,5.0,"('Type2',)",Char.gy
c2c0ac618b8686475b0f10a4ce08a82a,51.501053,-0.075837,4,Slow,5.0,"('Type2',)",Char.gy
5460d2d31cec0674075f3676662e6312,51.50602,-0.102464,4,Slow,5.0,"('Type2',)",Char.gy
289fe1d6659737a558c48bc2f0aca546,51.504822,-0.101959,4,Slow,5.0,"('Type2',)",Char.gy
114464a353d6eb75b1f5329d46a27cba,51.499948,-0.108627,4,Slow,5.0,"('Type2',)",Char.gy
ba32c09ee40d6e277d19d7fc265b7ee6,51.513327,-0.023736,4,Slow,5.0,"('Type2',)",Char.gy
2a1167f64e90336db189848e6d5ecbf2,51.51301,-0.022389,4,Slow,5.0,"('Type2',)",Char.gy
9b5b9376209c40aeeeeb3c26976dfdf5,51.514934,-0.048604,4,Slow,5.0,"('Type2',)",Char.gy
31334e004c827779be4b47069aea595a,51.515186,-0.047517,4,Slow,5.0,"('Type2',)",Char.gy
4620c9d53386898042bd6445ec0a3efd,51.495881,-0.097432,4,Slow,5.0,"('Type2',)",Char.gy
44bc7edc9b3b74e728e3f82ce1f1361e,51.495842,-0.095943,4,Slow,5.0,"('Type2',)",Char.gy
2cbf99744aab03382f370fb4b3179edd,51.495928,-0.095694,4,Slow,5.0,"('Type2',)",Char.gy
e4d6935b645f13b4a6c0da7bb1192c14,51.494902,-0.096931,4,Slow,5.0,"('Type2',)",Char.gy
1f3efc1875feead9669c87f86c1bd336,51.495264,-0.096826,4,Slow,5.0,"('Type2',)",Char.gy
0b8183f359fb60b56df2c8859b4daddf,51.491823,-0.100505,4,Slow,3.7,"('Type2',)",Char.gy
0c901fefcae46ba984225aa72df0825c,51.515623,-0.029458,4,Slow,5.0,"('Type2',)",Char.gy
c84a078bfb8db791cf8e1f73e780e09a,51.514854,-0.029215,4,Slow,5.0,"('Type2',)",Char.gy
017335bad48f4cae20a7fb8201cc1323,51.516574,-0.038331,4,Slow,5.0,"('Type2',)",Char.gy
c06ad18e4842f5f6f5738e58034a9fd9,51.514755,-0.030167,4,Slow,5.0,"('Type2',)",Char.gy
9b09ce1ca694f1eefab2e62c529d4a65,51.515807,-0.044087,4,Slow,5.0,"('Type2',)",Char.gy
d69cb2286b19b7e24a984a667977f0a4,51.514175,-0.043521,4,Slow,5.0,"('Type2',)",Char.gy
6e00465bd318dca500465a1c97038a9e,51.514835,-0.043611,4,Slow,5.0,"('Type2',)",Char.gy
b42c5ca9d26377cb1a90b26fff2dd18b,51.515682,-0.061868,4,Slow,5.0,"('Type2',)",Char.gy
9078a37a4f0f4834af3fbe880afa4432,51.516125,-0.061714,4,Slow,5.0,"('Type2',)",Char.gy
30ee81b243cfb3a5dc5e6cbfeb205a68,51.504399,-0.103884,4,Slow,5.0,"('Type2',)",Char.gy
debdedbd64610d4f0bf9a20d1b23aed6,51.504394,-0.10355,4,Slow,5.0,"('Type2',)",Char.gy
d4476432303e5843d8a90e60e2468f71,51.503012,-0.097245,4,Slow,5.0,"('Type2',)",Char.gy
8bf2795dee7917a6957459ea721ae084,51.50266,-0.098886,4,Slow,5.0,"('Type2',)",Char.gy
2829505a0960d35c23f0663b5988bbe2,51.502754,-0.100351,4,Slow,5.0,"('Type2',)",Char.gy
e9832bb74cca5f123a553d1bfad61f7c,51.501601,-0.102344,4,Slow,5.0,"('Type2',)",Char.gy
1e2acd6fd67977da70bd8a89edf6ff9e,51.505649,-0.10668,4,Slow,5.0,"('Type2',)",Char.gy
57730a354f977a31c784cb26c5b6ceab,51.504174,-0.10666,4,Slow,5.0,"('Type2',)",Char.gy
54b335a641709a3843f464ab2ba5a035,51.4999,-0.099727,4,Slow,5.0,"('Type2',)",Char.gy
aaf865faa54264d31920210a3c6d0ed3,51.519281,-0.055065,4,Slow,5.0,"('Type2',)",Char.gy
d1580ffa62584e53c27d612d3cfaf289,51.518878,-0.053151,4,Slow,5.0,"('Type2',)",Char.gy
59934c3970b70d6b12ab5a8971522131,51.51639,-0.042726,4,Slow,5.0,"('Type2',)",Char.gy
564a6e98c9232aaaba2322825450b3ac,51.515699,-0.049309,4,Slow,5.0,"('Type2',)",Char.gy
3f65d136905897e0c8d64366b0c1f514,51.513412,-0.026214,4,Slow,5.0,"('Type2',)",Char.gy
40039883020e5593ec8baaa9e12e62ee,51.516127,-0.032136,4,Slow,5.0,"('Type2',)",Char.gy
ccb8afc94e3b1a59bda0c7d39ac2f4c0,51.516801,-0.031097,4,Slow,5.0,"('Type2',)",Char.gy
32398179c8ab58f694b15ec1e21fb79b,51.512842,-0.026166,4,Slow,5.0,"('Type2',)",Char.gy
a9c68c1d1d0bb4fa35f8258765dc06e2,51.513516,-0.027389,4,Slow,5.0,"('Type2',)",Char.gy
21a8615938a206d4311a58a53ad8890e,51.515287,-0.027544,4,Slow,5.0,"('Type2',)",Char.gy
42e799ca5174e05f8533a0c78830a0e1,51.513919,-0.039022,4,Slow,5.0,"('Type2',)",Char.gy
b4ac69b9da11fb23cb544a150fc2e231,51.514113,-0.038095,4,Slow,5.0,"('Type2',)",Char.gy
aff69dee30004bd4033554c46ae3b87e,51.513247,-0.035068,4,Slow,5.0,"('Type2',)",Char.gy
f16089b727fc40428ebd2a16b72f09cd,51.515453,-0.039145,4,Slow,5.0,"('Type2',)",Char.gy
e64702e49cbff93d9403da5e5f64d550,51.513966,-0.024334,4,Slow,5.0,"('Type2',)",Char.gy
93564a3bf500286dfba6a8c2cd077cfd,51.51702,-0.022819,4,Slow,5.0,"('Type2',)",Char.gy
bcdd1ad57be37a87ca8c9657569de81e,51.519256,-0.041201,4,Slow,5.0,"('Type2',)",Char.gy
4e1c10508d9b7eb3d6834e3fc487c22e,51.519649,-0.043321,4,Slow,5.0,"('Type2',)",Char.gy
70e10bbd1e95b25b132118a399c85b7b,51.513633,-0.031387,4,Slow,5.0,"('Type2',)",Char.gy
965f1d5473cb1cbbf02c4ca8cda6919d,51.514633,-0.032309,4,Slow,5.0,"('Type2',)",Char.gy
094c11ef1dbdbaafce919e41851b6572,51.528025,-0.048574,4,Slow,5.0,"('Type2',)",Char.gy
f498db80ca2d72b5f46a822143d8c9c0,51.521018,-0.046159,4,Slow,5.0,"('Type2',)",Char.gy
3e43b1a55c962adf8395273b0b18c171,51.527087,-0.047283,4,Slow,5.0,"('Type2',)",Char.gy
baa7b77f7ec689dc3f9d0a70ca60abe2,51.527935,-0.047354,4,Slow,5.0,"('Type2',)",Char.gy
52b63b18f3d941bd6c6404bd8f32aa83,51.525493,-0.04356,4,Slow,5.0,"('Type2',)",Char.gy
fb7fce873c18ddcc4625ce2e9fa064ab,51.498856,-0.107889,4,Slow,5.0,"('Type2',)",Char.gy
01e91c5fa75d1dac67001b11e1d34526,51.498948,-0.108226,4,Slow,5.0,"('Type2',)",Char.gy
773dba6697ae13585ea0dc4b8b19bc8b,51.499141,-0.108438,4,Slow,5.0,"('Type2',)",Char.gy
f148cf892c6c938a2bf5ceedc8fabc41,51.501575,-0.097244,4,Slow,5.0,"('Type2',)",Char.gy
ebde8ecd2726a8fe7111d3093125d15b,51.502984,-0.095442,4,Slow,5.0,"('Type2',)",Char.gy
acc081905fc3a74f786141f8d1ccec79,51.503377,-0.095239,4,Slow,5.0,"('Type2',)",Char.gy
7b6cb39239766a8e42cca81c2521b7c1,51.505174,-0.103492,4,Slow,5.0,"('Type2',)",Char.gy
feabb1a74ad0dc5c0f4f7a94e15b28d3,51.507323,-0.102351,4,Slow,5.0,"('Type2',)",Char.gy
0bae4121aa044cb106d989a074682a66,51.506828,-0.102328,4,Slow,5.0,"('Type2',)",Char.gy
faa08dd96136738ccb714acbe3fa71c2,51.506673,-0.106096,4,Slow,5.0,"('Type2',)",Char.gy
b21faf0c5d48d275d1936685cda7f3ab,51.521578,-0.041531,4,Slow,5.0,"('Type2',)",Char.gy
571f72bde01e6ca9faed6d0f4de14c9c,51.521779,-0.041155,4,Slow,5.0,"('Type2',)",Char.gy
56ba199d2c826a25b96938b750b1f89a,51.516366,-0.047515,4,Slow,5.0,"('Type2',)",Char.gy
75b585976b28ce32f6fe504fcfdbc4af,51.51639,-0.05581,4,Slow,5.0,"('Type2',)",Char.gy
b6295f9a8b2d34f30d97c042a431dd6e,51.528956,-0.044893,4,Slow,5.0,"('Type2',)",Char.gy
91fe68b0667f404fed1799db7231803f,51.50518,-0.106071,4,Slow,5.0,"('Type2',)",Char.gy
c1c3b4141c8e209e52f9e6b5da1a602a,51.529515,-0.061437,4,Slow,5.0,"('Type2',)",Char.gy
f70f64819b9fdafacd3eadcd5ee7606c,51.521007,-0.039744,4,Slow,5.0,"('Type2',)",Char.gy
a976698a613851bca07124d544864077,51.534451,-0.054588,4,Slow,5.0,"('Type2',)",Char.gy
e98cf1757fd4ec13069fe091df5e9a5f,51.534077,-0.056058,4,Slow,5.0,"('Type2',)",Char.gy
cdc5e026071f9a75326fa4e6c2d5ff19,51.531733,-0.059614,4,Slow,5.0,"('Type2',)",Char.gy
c0a8ba64bb437b57e60f67e696eab969,51.532183,-0.055665,4,Slow,5.0,"('Type2',)",Char.gy
0386cdbe9a64dae813d2e8a2ebe5e5fb,51.538459,-0.027957,4,Slow,5.0,"('Type2',)",Char.gy
17ba167d51c7abd7f898d5b4a87e2d6b,51.517618,-0.021421,4,Slow,5.0,"('Type2',)",Char.gy
f41b281d28378895c316e9ea8030dc30,51.524817,-0.031233,4,Slow,5.0,"('Type2',)",Char.gy
ecfeb750951a9c32c8ba5dfa49f53f85,51.518374,-0.028548,4,Slow,5.0,"('Type2',)",Char.gy
3fd9eca42ee930039e7236c0c1d736ba,51.518537,-0.029281,4,Slow,5.0,"('Type2',)",Char.gy
5d375b27c58cc598cded6f918bdaf919,51.528955,-0.019876,4,Slow,5.0,"('Type2',)",Char.gy
f94c9def2df940085b347d25d5b63336,51.53972,-0.021772,4,Slow,5.0,"('Type2',)",Char.gy
7bc4d1902d04f77bdb654bf9c54191b4,51.52176,-0.058549,4,Slow,5.0,"('Type2',)",Char.gy
5ff93dc131ffd4158166b37759c97e0d,51.52398,-0.054011,4,Slow,5.0,"('Type2',)",Char.gy
60ba22ab2a78c30af88218f3b12cce00,51.510052,-0.061374,4,Slow,5.0,"('Type2',)",Char.gy
4e29c8572edb3e6c1a0eaad5ad36423e,51.509805,-0.065554,4,Slow,5.0,"('Type2',)",Char.gy
00ee877a1f7246f67e0badda72e8fa57,51.522771,-0.031041,4,Slow,5.0,"('Type2',)",Char.gy
10e2193612262be78e918b7f072f9902,51.538241,-0.022256,4,Slow,5.0,"('Type2',)",Char.gy
deeefbf4d1a082bc65844fc8bddd7f11,51.50217,-0.101955,4,Slow,5.0,"('Type2',)",Char.gy
1655e3a7fb4c92bb3c320dc6bb67b7ea,51.502934,-0.107235,4,Slow,5.0,"('Type2',)",Char.gy
e4bde83b742526d35406803cc9d50ee3,51.526137,-0.063189,4,Slow,5.0,"('Type2',)",Char.gy
6fa0effbf2dc1960ceca0f35fb021686,51.526024,-0.051219,4,Slow,5.0,"('Type2',)",Char.gy
622d01b3bbbc25a61458c0a49dc71f1e,51.497174,-0.10479,4,Slow,5.0,"('Type2',)",Char.gy
9c59beff6f01c3dd3843a0eef575a8fd,51.49408,-0.079866,4,Slow,5.0,"('Type2',)",Char.gy
2f23fc815326491f0346a6d49ea05faf,51.501427,-0.086557,4,Slow,5.0,"('Type2',)",Char.gy
50ca9139a65d95491aca614be46c08f1,51.497086,-0.109215,4,Slow,5.0,"('Type2',)",Char.gy
c85b40a9cbc762880f73b527c9dae82a,51.50048,-0.098666,4,Slow,5.0,"('Type2',)",Char.gy
4735ef903889558ff7100fefe6062383,51.500358,-0.07089,4,Slow,5.0,"('Type2',)",Char.gy
113f130612c63ef4835a61fba65de5b7,51.500453,-0.106689,4,Slow,5.0,"('Type2',)",Char.gy
83b1fb9700dd1c4925d145c1aad229c9,51.495817,-0.097506,4,Slow,5.0,"('Type2',)",Char.gy
9122e6917c43df2c068332f00db0ff97,51.500473,-0.106787,4,Slow,5.0,"('Type2',)",Char.gy
57567d9fdec08a73a389a0ef7f7f73d2,51.496579,-0.083927,4,Slow,5.0,"('Type2',)",Char.gy
6d1a0cf21ce7ff9904b5351e202bc427,51.496688,-0.094808,4,Slow,5.0,"('Type2',)",Char.gy
65449c9b7061317ec5503286a3104aa3,51.496094,-0.095651,4,Slow,3.7,"('Type2',)",Char.gy
0dbfed5cc6b2ab75195e18e1692991d2,51.499806,-0.108714,4,Slow,5.0,"('Type2',)",Char.gy
332577ad1103c9dcf650796e526808be,51.500355,-0.071694,4,Slow,5.0,"('Type2',)",Char.gy
d7013237485a7687e9eeda674ab9817c,51.515361,-0.032658,4,Slow,5.0,"('Type2',)",Char.gy
a9aad5ef29d93f6b001878d9ddf2bcdf,51.527502,-0.050234,4,Slow,5.0,"('Type2',)",Char.gy
34ab6601e14070ef3fbe3aa042eaa800,51.532007,-0.041337,4,Slow,5.0,"('Type2',)",Char.gy
8351c6b76359219682132b913a621036,51.496461,-0.095085,4,Slow,5.0,"('Type2',)",Char.gy
d05acd9d4d9340ab14cdef644d6d0c65,51.496182,-0.095394,4,Slow,5.0,"('Type2',)",Char.gy
c5c5c49476b6a334f7242147ce82eb07,51.49697,-0.094627,4,Slow,5.0,"('Type2',)",Char.gy
25a98f172804117c2f0fa861dc6c3619,51.499149,-0.073203,4,Slow,5.0,"('Type2',)",Char.gy
339deee055265d0eefe1aabf6367bd4a,51.496595,-0.095072,4,Slow,5.0,"('Type2',)",Char.gy
0b352414e83c92b3d5fa2ecdf5895e40,51.500074,-0.108549,4,Slow,5.0,"('Type2',)",Char.gy
b40a47615c456a7f461d1893cf515098,51.498505,-0.075741,4,Slow,5.0,"('Type2',)",Char.gy
bbc75d90a9fb50e339b0cb1202f72951,51.496342,-0.095351,4,Slow,5.0,"('Type2',)",Char.gy
22f737e47d8261297d774f773ea41105,51.50231,-0.103369,4,Slow,5.0,"('Type2',)",Char.gy
2740fdfa07d35fd4ad3577d135b08ee8,51.491715,-0.066445,4,Slow,5.0,"('Type2',)",Char.gy
f3870ab9dd8c494499dba8b4ddb3f524,51.502343,-0.102945,4,Slow,5.0,"('Type2',)",Char.gy
fb60d93c210068b4a03cd16c0018d8dd,51.499638,-0.088368,4,Slow,5.0,"('Type2',)",Char.gy
c58c235f047e91ab21fb8d3dc695ded9,51.500037,-0.071196,4,Slow,5.0,"('Type2',)",Char.gy
24fd9f8a8925109043c399b9bd5451e7,51.490591,-0.066369,4,Slow,5.0,"('Type2',)",Char.gy
662a1f97fb9268eb285db95cb33ccfb2,51.506864,-0.106078,4,Slow,5.0,"('Type2',)",Char.gy
a025431491496ccc81e48f18ec917059,51.491371,-0.066098,4,Slow,5.0,"('Type2',)",Char.gy
bfe1049f00d859d9ac317c5e72320868,51.50278,-0.099451,4,Slow,5.0,"('Type2',)",Char.gy
de59da99302b43698ca6c48fe7af703a,51.505551,-0.102954,4,Slow,5.0,"('Type2',)",Char.gy
903d22fba8961f24683ce41fd18ad99c,51.50147,-0.099866,4,Slow,5.0,"('Type2',)",Char.gy
da7a8538f64acef650b6d59f5251b4a9,51.483848,-0.070569,4,Slow,5.0,"('Type2',)",Char.gy
b81500d412689ccbd1d7b7679610e672,51.498327,-0.087116,4,Slow,5.0,"('Type2',)",Char.gy
c423ddfd4a43f764e88fc2c0a6c141b6,51.499096,-0.087919,4,Slow,5.0,"('Type2',)",Char.gy
f8b8026a112f686da62f110898bef520,51.502348,-0.106614,4,Slow,5.0,"('Type2',)",Char.gy
b9b3187438d5d627957e965cb25f407d,51.502441,-0.106853,4,Slow,5.0,"('Type2',)",Char.gy
95cb5925f906f28c275425b69e11de3c,51.490127,-0.073711,4,Slow,3.7,"('Type2',)",Char.gy
162efa68503a49baf8de963ec9ff94bd,51.488259,-0.072075,4,Slow,5.0,"('Type2',)",Char.gy
f8d9e12f761a4f5e16e7761db4414a8d,51.48949,-0.07147,4,Slow,3.7,"('Type2',)",Char.gy
5ea476a50852989552ef7f91e80161e4,51.491193,-0.066749,4,Slow,5.0,"('Type2',)",Char.gy
0ff0aa735b851bfd968d49d261668e72,51.490762,-0.067778,4,Slow,5.0,"('Type2',)",Char.gy
889cc87b407e13184320363013540306,51.497429,-0.104565,4,Slow,5.0,"('Type2',)",Char.gy
ce8cd3bebb5c0398658f3aa52f763c90,51.501367,-0.101358,4,Slow,5.0,"('Type2',)",Char.gy
5a1b53ff51d5b52f8b4911712e5dff6c,51.495585,-0.094836,4,Slow,5.0,"('Type2',)",Char.gy
d611416a7d62161ec6dffb95fcb43596,51.501695,-0.084311,4,Slow,5.0,"('Type2',)",Char.gy
cc172c862cd5d5744d4d1bfc5734ef60,51.500499,-0.081141,4,Slow,5.0,"('Type2',)",Char.gy
2bb45d56c873af6f033c879ca336967f,51.493571,-0.079184,4,Slow,5.0,"('Type2',)",Char.gy
a066b5a8ea9ded5d35099de9f16e0ccd,51.490317,-0.072353,4,Slow,5.0,"('Type2',)",Char.gy
d722130ef5aa1f87827d536d59423aa0,51.48791,-0.072426,4,Slow,5.0,"('Type2',)",Char.gy
2d314eb03439d23928c6e0766fd7f869,51.498129,-0.078109,4,Slow,5.0,"('Type2',)",Char.gy
f6ae16f978528ac7ff29dab88e38c9a8,51.505988,-0.106817,4,Slow,5.0,"('Type2',)",Char.gy
a4b7469af8981aa8c0fba43a0252b77a,51.506491,-0.107017,4,Slow,5.0,"('Type2',)",Char.gy
262ae359c0b3eb9838cb2e614fd26c14,51.490241,-0.060012,4,Slow,5.0,"('Type2',)",Char.gy
01eef5071c972d58424291dfe1da195e,51.530058,-0.049099,4,Slow,5.0,"('Type2',)",Char.gy
c51f9e0913ad03d359dd2d313d6ea82d,51.527472,-0.051836,4,Slow,5.0,"('Type2',)",Char.gy
c294f72ef5deb9f18899b53861a5a35c,51.5137,-0.025255,4,Slow,5.0,"('Type2',)",Char.gy
4835cddc2a62cbba0b812f629752b3f2,51.519275,-0.028784,4,Slow,5.0,"('Type2',)",Char.gy
da61e44097674cfcfd471e32aa6e721c,51.49959,-0.107621,4,Slow,5.0,"('Type2',)",Char.gy
5acb52bf056b3a5fc2b90dae459bd963,51.49526,-0.089348,4,Slow,5.0,"('Type2',)",Char.gy
e2f232687833a4fd8664f759d6474309,51.464484,-0.134543,4,Slow,5.0,"('Type2',)",Char.gy
1957be25763ff3ec3424555f62378b5d,51.466822,-0.131344,4,Slow,5.0,"('Type2',)",Char.gy
ef652e54969dd661422f75e809bc118c,51.464403,-0.124835,4,Slow,5.0,"('Type2',)",Char.gy
db212ef48d71d0105414f05c818817f6,51.474106,-0.125414,4,Slow,5.0,"('Type2',)",Char.gy
d3b59e5334d040cb625101ff10bb23dc,51.461523,-0.109892,4,Slow,5.0,"('Type2',)",Char.gy
5c2c73d1755012c50a9e2e49e573acc9,51.456378,-0.123657,4,Slow,5.0,"('Type2',)",Char.gy
0f0d1bd92a1c953fa65b84814e7edf47,51.456793,-0.115033,4,Slow,5.0,"('Type2',)",Char.gy
9e30406afccf16ae8fce4865dd865063,51.460699,-0.137878,4,Slow,5.0,"('Type2',)",Char.gy
c6a93edd9967f8bd926adde5dca15870,51.478837,-0.113793,4,Slow,5.0,"('Type2',)",Char.gy
4531af2af554807ee96fe3355fb48fda,51.46075,-0.127315,4,Slow,5.0,"('Type2',)",Char.gy
ff9d29ccadcf32f64b2e3cbdf938e6e1,51.455914,-0.120654,4,Slow,5.0,"('Type2',)",Char.gy
46b1ac0c05d39e4da9ae36b2469348f1,51.468223,-0.122604,4,Slow,5.0,"('Type2',)",Char.gy
a404ae2c95c8862d6148d8ce7d6bff32,51.459204,-0.113478,4,Slow,5.0,"('Type2',)",Char.gy
76ac1a05475dbeb85054a41937875833,51.460775,-0.128033,4,Slow,5.0,"('Type2',)",Char.gy
ff7f9bc1202b7d02fecf60070c53f6dc,51.464461,-0.122886,4,Slow,5.0,"('Type2',)",Char.gy
5cc28164edf9a64c2939ab5d8effa7c0,51.458379,-0.125492,4,Slow,5.0,"('Type2',)",Char.gy
2f50a740b4a03c09a651a989c78351f9,51.465101,-0.109047,4,Slow,5.0,"('Type2',)",Char.gy
8d348cad1a0ee6c9b08da93cbda4ef67,51.461855,-0.120929,4,Slow,5.0,"('Type2',)",Char.gy
d460714d921ae13103d1231664e4df28,51.458184,-0.121781,4,Slow,5.0,"('Type2',)",Char.gy
1e5ef9a9c64454699e27bb94726c82a9,51.466052,-0.138976,4,Slow,5.0,"('Type2',)",Char.gy
d2c5e76f960ac8c7db978d998617c08d,51.440009,-0.123964,4,Slow,5.0,"('Type2',)",Char.gy
de3185181a504517014989720b23a2dc,51.439631,-0.119665,4,Slow,5.0,"('Type2',)",Char.gy
af55c14f4b08275b24f4cea2e7a4dd29,51.444953,-0.126619,4,Slow,5.0,"('Type2',)",Char.gy
b9a76307ca86e35edfdd7e15ddb9569f,51.442822,-0.127655,4,Slow,5.0,"('Type2',)",Char.gy
44b2b03bca0d7bd26526df5ddd652abf,51.503257,-0.108159,4,Slow,5.0,"('Type2',)",Char.gy
05c77ee375c75fbb2bacc395dec4a5ff,51.442538,-0.110259,4,Slow,5.0,"('Type2',)",Char.gy
736f3fcf268ddab35bb6e97e6daedf9e,51.472607,-0.107297,4,Slow,5.0,"('Type2',)",Char.gy
b07416cdf227adf09fbf187354d5b7ae,51.458103,-0.129651,4,Slow,5.0,"('Type2',)",Char.gy
9d9d707d6d7fbe4083b648d801f3d597,51.473431,-0.110739,4,Slow,5.0,"('Type2',)",Char.gy
e79c646f50aa0ae0b6c7bb0b8d3e9bed,51.461233,-0.112615,4,Slow,3.7,"('Type2',)",Char.gy
54668d13816469719333ff25ca5f03ea,51.454962,-0.131706,4,Slow,5.0,"('Type2',)",Char.gy
d96f8dd21009ec314b230d52b6f83be6,51.461063,-0.13044,4,Slow,5.0,"('Type2',)",Char.gy
60458e9026599da44283fc67ff679dbe,51.452652,-0.133973,4,Slow,5.0,"('Type2',)",Char.gy
f4ac71795f13804fe2b309f3084dc532,51.452744,-0.138405,4,Slow,5.0,"('Type2',)",Char.gy
9ba9df1d339acc2f01f3181bbfbbfc4c,51.454838,-0.135872,4,Slow,5.0,"('Type2',)",Char.gy
e70b23d3a33bfd86cf9fb4abc3841bfc,51.455077,-0.135414,4,Slow,5.0,"('Type2',)",Char.gy
02cefc91261f5a16798b11ad4040bbc7,51.455568,-0.134156,4,Slow,5.0,"('Type2',)",Char.gy
890c8543f2f7ebadb23239504cf38d12,51.455453,-0.134631,4,Slow,5.0,"('Type2',)",Char.gy
72e5752e3bc613ca66ea19c9d5bc2bae,51.457871,-0.133552,4,Slow,5.0,"('Type2',)",Char.gy
150e6dea93b9f1ae6001b75d4906a8e5,51.446958,-0.118797,4,Slow,5.0,"('Type2',)",Char.gy
7a957ffbcbe8ff5ba8c6fd059e9fb4d3,51.456662,-0.136699,4,Slow,5.0,"('Type2',)",Char.gy
92210e5fbb78714eb685316ebdb618cd,51.455775,-0.141689,4,Slow,5.0,"('Type2',)",Char.gy
ab1ab2e705f17b51638e0f78ce3bdd83,51.45728,-0.131866,4,Slow,5.0,"('Type2',)",Char.gy
2d5fa98ca4be67f0d79e40cf7bff3c37,51.451145,-0.13036,4,Slow,5.0,"('Type2',)",Char.gy
e1add459d735145748a3faef1bd1a434,51.476346,-0.114686,4,Slow,5.0,"('Type2',)",Char.gy
b15628b1d6e0282e0e81d2c7020c23f6,51.496999,-0.112876,4,Slow,5.0,"('Type2',)",Char.gy
aa9f6af4c97770f819b7cbb150229314,51.478029,-0.104602,4,Slow,5.0,"('Type2',)",Char.gy
d6c5f1627ae5248ab4d83a59578449c2,51.481059,-0.11212,4,Slow,5.0,"('Type2',)",Char.gy
f752ad7bccd7a9e801d93c8bd3d1d692,51.472514,-0.111662,4,Slow,5.0,"('Type2',)",Char.gy
44ac6a7eb20008dd64b2dae9ce77d59d,51.471307,-0.11188,4,Slow,5.0,"('Type2',)",Char.gy
6acdc1b2ef8324bc0ff459fc6337d614,51.466115,-0.12161,4,Slow,5.0,"('Type2',)",Char.gy
9da324cc8c58f9f666e7c4b42a700b77,51.465671,-0.14483,4,Slow,5.0,"('Type2',)",Char.gy
cb57d019f5447ece462cffb21eb56584,51.442133,-0.127491,4,Slow,5.0,"('Type2',)",Char.gy
50a300306e904ca06f49be9314f99644,51.488015,-0.213977,9,Slow,4.8,"('Type2',)",City EV
1d96df6c7e5471f66d6d45135ee5c517,51.499823,-0.215596,9,Slow,4.8,"('Type2',)",City EV
a784cc6a1286ef2bd7db4ca23c97e9c2,51.487738,-0.215155,9,Slow,4.8,"('Type2',)",City EV
e50278c1f72acc9a5dcb9b7866a4eb01,51.471619,-0.188672,9,Slow,4.8,"('Type2',)",City EV
898f35584859b7fe0f0584d4cf3d7bf7,51.491128,-0.207951,9,Slow,4.8,"('Type2',)",City EV
41b28a11da13a0384a9b75f95244e8e8,51.49942,-0.230158,9,Slow,4.8,"('Type2',)",City EV
6942ff4a83092e3e43e89cb16d1c0cef,51.49857,-0.231632,9,Slow,4.8,"('Type2',)",City EV
c6a0cf0ee4f5f0101504155ec1eeb479,51.491726,-0.204561,9,Slow,4.8,"('Type2',)",City EV
8089af32cb1a7ad8340c2c8cdc6963d4,51.492217,-0.205172,9,Slow,4.8,"('Type2',)",City EV
561733698d12040c54e8f129f445440b,51.48006,-0.2087,9,Slow,4.8,"('Type2',)",City EV
73410ad869e1ccb20c9838a1f14299f9,51.501146,-0.225514,9,Slow,4.8,"('Type2',)",City EV
ff4615c5a14f08333530c71d2e812644,51.49809,-0.22116,9,Slow,4.8,"('Type2',)",City EV
8bae2668d9baa9309af2aa5ae18820db,51.493469,-0.222319,9,Slow,4.8,"('Type2',)",City EV
025802ed8612924793362017cb66213d,51.482513,-0.200766,9,Slow,4.8,"('Type2',)",City EV
baaf1409cd0fabc331a97617669ef642,51.497932,-0.216413,9,Slow,4.8,"('Type2',)",City EV
83b719558d2bf65c7117cf4de49dd3dd,51.47231,-0.19114,9,Slow,4.8,"('Type2',)",City EV
b1416d561a9fb77df69a90dd0fb5dd10,51.47003,-0.19257,9,Slow,4.8,"('Type2',)",City EV
825ac1bddf9396fedf300d2874820178,51.478561,-0.212742,9,Slow,4.8,"('Type2',)",City EV
75908e2ec69e6b90164e3dab1c94ac5e,51.485942,-0.211394,9,Slow,4.8,"('Type2',)",City EV
f2adb5ad1aa4c170f31940d55e426e0d,51.48223,-0.2071,9,Slow,4.8,"('Type2',)",City EV
99a7cac51f82d5b5242fff9d7bddc0d9,51.491694,-0.209169,9,Slow,4.8,"('Type2',)",City EV
97b57a5f2af6e3b6b300af28894502f6,51.475521,-0.212944,9,Slow,4.8,"('Type2',)",City EV
f784b72a42c30971787b653aa94fd95e,51.497011,-0.230986,9,Slow,4.8,"('Type2',)",City EV
185b60aa918401c92b36198e6eb789f6,51.475752,-0.217661,9,Slow,4.8,"('Type2',)",City EV
fda0b85b8332369cb1cc6f12d88d8f83,51.472267,-0.206309,9,Slow,4.8,"('Type2',)",City EV
c4c2e7143c8d44b7a6779cddfe1860ed,51.483644,-0.222998,9,Slow,4.8,"('Type2',)",City EV
b30bccbc41e4cef5a641a34f50fd2d54,51.497883,-0.219658,9,Slow,4.8,"('Type2',)",City EV
ba52b2a9212909da40b841bafa9686ef,51.491782,-0.209761,9,Slow,4.8,"('Type2',)",City EV
5d5109647bccebef21ea74d8e2737953,51.48007,-0.18943,9,Slow,4.8,"('Type2',)",City EV
e7afc95f9d366b64ccdf0d7aaf6ccfba,51.48,-0.20572,9,Slow,4.8,"('Type2',)",City EV
a2ae6bb8f4cd926da705ca5e85f51793,51.47783,-0.19358,9,Slow,4.8,"('Type2',)",City EV
5782313e527e42d300fbde19188698eb,51.478526,-0.211099,9,Slow,4.8,"('Type2',)",City EV
05a847ed6327ba1a9ee53746b86e626a,51.477025,-0.212824,9,Slow,4.8,"('Type2',)",City EV
6bbc18cc9130c5695789a20598b6ec73,51.47196,-0.18786,9,Slow,4.8,"('Type2',)",City EV
464f39935fe94750c68230298774c7a0,51.491734,-0.209485,9,Slow,4.8,"('Type2',)",City EV
78891fff3cc1b309482e5e431c169b67,51.489184,-0.229662,9,Slow,4.8,"('Type2',)",City EV
664f97341efa94fc5f309b1bc66d3b7f,51.484673,-0.201922,9,Slow,4.8,"('Type2',)",City EV
d0afe12655aee19d7225146067e91d19,51.463032,-0.130957,9,Slow,7.0,"('Type2',)",City EV
eec0bd4e26630d40fd0d291fb23354aa,51.448482,-0.121715,9,Slow,7.0,"('Type2',)",City EV
405f356dc19ce861457070c0512a2a62,51.445465,-0.108074,9,Slow,7.0,"('Type2',)",City EV
84146db97949352d5c32f7345fc8da82,51.454573,-0.114914,9,Slow,7.0,"('Type2',)",City EV
783d6a25635e8f73eba03470f4be05c9,51.451771,-0.129729,9,Slow,7.0,"('Type2',)",City EV
4fc83f7b8a720435e9b9643950f7bbc7,51.451562,-0.127344,9,Slow,7.0,"('Type2',)",City EV
bc546801ff7ef8532c95880bb285f5e6,51.452289,-0.128296,9,Slow,7.0,"('Type2',)",City EV
1391692c31ef6ef95f69f4324c163e81,51.449059,-0.12524,9,Slow,7.0,"('Type2',)",City EV
8255a19ee4c0ea72a9b0ade0300145ff,51.447196,-0.126112,9,Slow,7.0,"('Type2',)",City EV
836dd94bc8b9f207cf639d54fd03857b,51.45188,-0.140247,9,Slow,7.0,"('Type2',)",City EV
1e715f76b7d9dd5b83572df6b73cecb8,51.448993,-0.12795,9,Slow,7.0,"('Type2',)",City EV
fbf9122fe49f706ce61e1e4585c6f3a4,51.44686,-0.126461,9,Slow,7.0,"('Type2',)",City EV
2550698ff698ace5bad6cc684ea27387,51.449703,-0.124519,9,Slow,7.0,"('Type2',)",City EV
68e351e42bf60dd7fbf079668a4e537c,51.448053,-0.127295,9,Slow,7.0,"('Type2',)",City EV
04da78cff2a7b850a48649ed79c82364,51.467646,-0.126505,9,Slow,7.0,"('Type2',)",City EV
2a79dc440bea90acb421cb4262dd6ef3,51.503802,-0.109104,9,Slow,7.0,"('Type2',)",City EV
5cebded560cc594acb569e69971bbae3,51.464496,-0.125742,9,Slow,7.0,"('Type2',)",City EV
f324ab5a4742d821ab16a9014ab2a9a3,51.51431,-0.137216,16,Slow,7.0,"('Type2',)",Blink Charging
41e23e24ee2670c4128cd7e5e5ee42ab,51.514318,-0.137203,16,Slow,7.0,"('Type2',)",Blink Charging
1df390410edc657159d4ff9172e87c38,51.514324,-0.137183,16,Slow,7.0,"('Type2',)",Blink Charging
1c1704c7601fcdb79cf1ba3d3cb72e91,51.514329,-0.137177,16,Slow,7.0,"('Type2',)",Blink Charging
7e1ce4ce3124fd9ecc13a151afcff11b,51.514331,-0.137149,16,Slow,7.0,"('Type2',)",Blink Charging
d4d05c2e262dc1b4f07d7c104c0b0c84,51.514393,-0.137001,16,Slow,7.0,"('Type2',)",Blink Charging
923c5f28baa1870eabbd174ea6a1221d,51.466413,-0.120007,1,Slow,3.7,"('Type2',)",ubitricity
72a8221d489e3b925e96c1e1ef6a0ebe,51.469573,-0.136955,1,Slow,3.7,"('Type2',)",ubitricity
5b2fa35fa5ed3f224fd8b2b6debf31b3,51.466092,-0.136451,1,Slow,3.7,"('Type2',)",ubitricity
e4343ac10dbaada982a3108b5ae6315f,51.450675,-0.128641,1,Slow,3.7,"('Type2',)",ubitricity
488fbc61af44741162461bf624804d4c,51.50017,-0.11059,1,Slow,3.7,"('Type2',)",ubitricity
fe68c1592abb7b99132c2494430a53c4,51.456296,-0.137616,1,Slow,3.7,"('Type2',)",ubitricity
f1e48562c8c0cb395579c4031d307148,51.469691,-0.104394,1,Slow,3.7,"('Type2',)",ubitricity
e83d3ce589ef4178cb9a5446bf3c0475,51.471521,-0.118022,1,Slow,3.7,"('Type2',)",ubitricity
a3f2130d312ab153ba470886115ea2ee,51.465308,-0.142616,1,Slow,3.7,"('Type2',)",ubitricity
dc5da8afd9b2be9cb8dd5bdc509d1d40,51.46542,-0.142288,1,Slow,3.7,"('Type2',)",ubitricity
39e989a091af097f2762083a8ccfb10e,51.448844,-0.11714,1,Slow,3.7,"('Type2',)",ubitricity
8c19c123a9aba6ebca87566870654ac6,51.475335,-0.116673,1,Slow,3.7,"('Type2',)",ubitricity
23b667dfda9004cb8af1cf7d82a082b2,51.537043,-0.110754,1,Slow,3.7,"('Type2',)",ubitricity
9d260e5757e8df6b5ca0aa902e34d529,51.441943,-0.12161,1,Slow,3.7,"('Type2',)",ubitricity
30d94e0afa7333bf26ebf64cf7a25115,51.538971,-0.099968,1,Slow,3.7,"('Type2',)",ubitricity
94c0804be8acc161769e9acb77d8ec32,51.471114,-0.108397,1,Slow,3.7,"('Type2',)",ubitricity
52f567614a900ad127dc800b26318803,51.436063,-0.119366,1,Slow,3.7,"('Type2',)",ubitricity
4ff47a28ca09766111000e151bbfdc13,51.468028,-0.13898,1,Slow,3.7,"('Type2',)",ubitricity
fc4d25f1b28296b004a6f86195490df8,51.45659,-0.110907,1,Slow,3.7,"('Type2',)",ubitricity
6d1662a825e666112a5bec7e4028830c,51.546722,-0.091068,1,Slow,3.7,"('Type2',)",ubitricity
263ccd7aa3254ceb086f6e307a7ae7c8,51.438747,-0.123086,1,Slow,3.7,"('Type2',)",ubitricity
3a6a6e9a747fbf1e7676aa4bcd0d377f,51.455523,-0.134217,1,Slow,3.7,"('Type2',)",ubitricity
7e1f35e9e0262960fcbf7476342dd49d,51.455454,-0.134705,1,Slow,3.7,"('Type2',)",ubitricity
7ec5b36820ed1cc1735ac0b8d6617d48,51.465871,-0.145592,1,Slow,3.7,"('Type2',)",ubitricity
22872122c6be252e15c87a7da83312a5,51.467161,-0.137023,1,Slow,3.7,"('Type2',)",ubitricity
aa955ab69f8c45b03468465c03e5bd38,51.454272,-0.140734,1,Slow,3.7,"('Type2',)",ubitricity
6612ec8ffce6ffde437065d80dbc75bb,51.468101,-0.13824,1,Slow,3.7,"('Type2',)",ubitricity
1f8911b0ff40fbc0408c8d9e5d0dd193,51.456567,-0.127694,1,Slow,3.7,"('Type2',)",ubitricity
c776369be2add4d6643c7d46dd106cd2,51.538856,-0.100318,1,Slow,3.7,"('Type2',)",ubitricity
77e9c1365b3f7d610691f5460ba4b530,51.526631,-0.099419,1,Slow,3.7,"('Type2',)",ubitricity
a842648d25406294ef60f56b5fe969b9,51.526633,-0.099802,1,Slow,3.7,"('Type2',)",ubitricity
24c1584e70b4e3d58f5d62e6a1885c14,51.537777,-0.110337,1,Slow,3.7,"('Type2',)",ubitricity
ab1f868c7d00fa0db4198a7267d8fb98,51.538859,-0.099435,1,Slow,3.7,"('Type2',)",ubitricity
a29664bf3d977c774e32e31652f81ee9,51.539309,-0.101324,1,Slow,3.7,"('Type2',)",ubitricity
05f283a899372c75f1427f1daf60c389,51.544551,-0.091586,1,Slow,3.7,"('Type2',)",ubitricity
7323e13b502b18674c59bb2015818e78,51.544646,-0.091435,1,Slow,3.7,"('Type2',)",ubitricity
a85484f2cb09a4f053abce0489cc4cb6,51.547034,-0.090247,1,Slow,3.7,"('Type2',)",ubitricity
df139a4a0fe80d9221879c923a2f2162,51.541456,-0.106195,1,Slow,3.7,"('Type2',)",ubitricity
daa7a5152769a9b310031e484bc8e3f9,51.541623,-0.106305,1,Slow,3.7,"('Type2',)",ubitricity
57fac2df8f52ea159ba6ee22e8a62388,51.517603,-0.129837,1,Slow,3.7,"('Type2',)",ubitricity
25d651b6442f9a0aa411cdb1b6ce4380,51.546266,-0.090858,1,Slow,3.7,"('Type2',)",ubitricity
67f68835939b9fa291a4e417312b4ec1,51.544128,-0.092299,1,Slow,3.7,"('Type2',)",ubitricity
f558bdfd34ca36383c0e6b451a1a9654,51.541925,-0.106414,1,Slow,3.7,"('Type2',)",ubitricity
ed6efa2a688ddc6cd41c820a7dbc199c,51.533073,-0.133529,1,Slow,3.7,"('Type2',)",ubitricity
3d8cbd78a78f00dd145def57995843a9,51.537819,-0.106911,1,Slow,3.7,"('Type2',)",ubitricity
bc54cb4a4a51322747ecd21d29947b1a,51.499947,-0.110097,1,Slow,3.7,"('Type2',)",ubitricity
ad03b1b9abf25265bba8bf4fe16131dc,51.448793,-0.116748,1,Slow,3.7,"('Type2',)",ubitricity
85bcbc95ba80ead392a733ce8a202ab8,51.466769,-0.13164,1,Slow,3.7,"('Type2',)",ubitricity
34c6cfd9d8e84a6a0cd9aad3434679cf,51.543446,-0.106929,1,Slow,3.7,"('Type2',)",ubitricity
d71cc13f10c78e5b9ac4fd1768391a62,51.544207,-0.107187,1,Slow,3.7,"('Type2',)",ubitricity
25890b7fc940bc487a8835f76088667d,51.543624,-0.10715,1,Slow,3.7,"('Type2',)",ubitricity
27bcf25552471e0e7b1b1742573a845d,51.539912,-0.106441,1,Slow,3.7,"('Type2',)",ubitricity
e195b33d677b9903e89282fb4df07836,51.537336,-0.110449,1,Slow,3.7,"('Type2',)",ubitricity
f249bd69645ca81f7f5bf8e172902aac,51.526818,-0.098327,1,Slow,3.7,"('Type2',)",ubitricity
3343c3b47c33426abfaf01ca53e8c9db,51.538236,-0.106836,1,Slow,3.7,"('Type2',)",ubitricity
c94b2ca3dd80ed212f35be130f4fc799,51.541763,-0.106168,1,Slow,3.7,"('Type2',)",ubitricity
3d17061483ce59ba1d4921878789ebcc,51.526759,-0.098865,1,Slow,3.7,"('Type2',)",ubitricity
9985f8cb8ad677c397e4666cf3555c14,51.544999,-0.090697,1,Slow,3.7,"('Type2',)",ubitricity
03f46deabff97c9545515d60917da1cf,51.526685,-0.098967,1,Slow,3.7,"('Type2',)",ubitricity
33b1a3944a2d698f0d6779e03c4033b1,51.544904,-0.090904,1,Slow,3.7,"('Type2',)",ubitricity
7dc64f1f00917377ced739505ad9278b,51.545554,-0.090501,1,Slow,3.7,"('Type2',)",ubitricity
bbed27360595942048c1aaca970c6607,51.537043,-0.110754,1,Slow,3.7,"('Type2',)",ubitricity
6f0b37f247acb98440090f21acd2e5fa,51.496482,-0.096888,1,Slow,3.7,"('Type2',)",ubitricity
315142ee98dd6a11ec20506c2b7ffc27,51.497419,-0.09509,1,Slow,3.7,"('Type2',)",ubitricity
4153ece730723623cadbe83114fcfe73,51.496386,-0.090753,1,Slow,3.7,"('Type2',)",ubitricity
70fef3c029c29be2166dbdb2f5ff9464,51.49742,-0.083497,1,Slow,3.7,"('Type2',)",ubitricity
d5b77a2052bc4fa05b6212b23cd3afc0,51.496248,-0.090591,1,Slow,3.7,"('Type2',)",ubitricity
1538f816f097c6e24e4925917da4bdd2,51.523727,-0.138717,1,Slow,3.7,"('Type2',)",ubitricity
5921fd997d0d6dc96d6fe5c4ada80aeb,51.536914,-0.145977,1,Slow,3.7,"('Type2',)",ubitricity
30ac3fb164060f0b17c6cc119c2d33eb,51.495989,-0.087046,1,Slow,3.7,"('Type2',)",ubitricity
87bd21b0b1f922b7160de6e6741e5cd2,51.503263,-0.103546,1,Slow,3.7,"('Type2',)",ubitricity
28f3924d1c130b337375d77e15538d48,51.493639,-0.087964,1,Slow,3.7,"('Type2',)",ubitricity
939fdd79617b7d679d5fb7a0073fd6ad,51.494014,-0.087202,1,Slow,3.7,"('Type2',)",ubitricity
50fdf9e2ef71359feedcbc15afb70d74,51.496995,-0.087943,1,Slow,3.7,"('Type2',)",ubitricity
98485360b99f87f158f5074969fb6af2,51.503259,-0.103705,1,Slow,3.7,"('Type2',)",ubitricity
b9315c6dec9172e5de2341c8b0a64d28,51.50519,-0.103733,1,Slow,3.7,"('Type2',)",ubitricity
2ffa4f0ce849ecc17cddde7b441c8037,51.487328,-0.216255,1,Slow,3.7,"('Type2',)",ubitricity
cd2473eef7d52947c67e60b4326d4a9f,51.536691,-0.097825,1,Slow,3.7,"('Type2',)",ubitricity
f11266828b1858ddc683919bf8deee9a,51.541336,-0.106139,1,Slow,3.7,"('Type2',)",ubitricity
ce392219c1dcf5217c9e4c2530ee4d8c,51.538246,-0.110482,1,Slow,3.7,"('Type2',)",ubitricity
b212d59e08787ad647bc5bab8761b3c8,51.471754,-0.195827,1,Slow,3.7,"('Type2',)",ubitricity
13185672496b3160f957f0109d9b380d,51.490924,-0.244282,1,Slow,3.7,"('Type2',)",ubitricity
9885db9d9ee078055567f91ba45eabde,51.47725,-0.20044,1,Slow,3.7,"('Type2',)",ubitricity
181a7226718a9ace89248959de417dd3,51.477247,-0.200435,1,Slow,3.7,"('Type2',)",ubitricity
5f900bc09a5272892fda8e1ab30e0813,51.493232,-0.216525,1,Slow,3.7,"('Type2',)",ubitricity
b106332f7d804fb52d509b941d316d18,51.478682,-0.204337,1,Slow,3.7,"('Type2',)",ubitricity
06e5f7135fef3c5f45e451ebe3dfbeee,51.479607,-0.188329,1,Slow,3.7,"('Type2',)",ubitricity
d966e072fab4f783c66d30fa2ed4a723,51.496634,-0.217443,1,Slow,3.7,"('Type2',)",ubitricity
121a6584c2134ef22a5332972e93772d,51.500716,-0.224665,1,Slow,3.7,"('Type2',)",ubitricity
8b227908914255b00f0d9db486bffdc3,51.472017,-0.195912,1,Slow,3.7,"('Type2',)",ubitricity
1e5c7e2e03a402f9d759a0d7e8c8b968,51.500427,-0.224642,1,Slow,3.7,"('Type2',)",ubitricity
6d3a6ac1622c4b985e1331d854db01f6,51.4858,-0.20827,1,Slow,3.7,"('Type2',)",ubitricity
04b34118a0e5f7ca6b76df7dac2855c7,51.48461,-0.20095,1,Slow,3.7,"('Type2',)",ubitricity
99cc0385e7170c6ee7a2cf202d3bbe42,51.47475,-0.21739,1,Slow,3.7,"('Type2',)",ubitricity
e88a994b60847fd3f5bf29ddce531b13,51.471256,-0.204565,1,Slow,3.7,"('Type2',)",ubitricity
a03aad508e99fc341087a8b9ec12c053,51.470844,-0.18605,1,Slow,3.7,"('Type2',)",ubitricity
6e8c283856c8ba1e6720cb6752c829bb,51.47958,-0.22156,1,Slow,3.7,"('Type2',)",ubitricity
e706bb1177117c72af85a7270047692e,51.47358,-0.21674,1,Slow,3.7,"('Type2',)",ubitricity
eec6df0763345c1590c6a21a5026f3ef,51.478364,-0.204071,1,Slow,3.7,"('Type2',)",ubitricity
d0a93b0bac7ee825633cc450fbf820cb,51.474814,-0.197996,1,Slow,3.7,"('Type2',)",ubitricity
414e2c4fbdb1b278a2c1adfce0cb31df,51.477469,-0.207343,1,Slow,3.7,"('Type2',)",ubitricity
ce1863f25b15264712a4c35f06a72a28,51.47936,-0.213374,1,Slow,3.7,"('Type2',)",ubitricity
5171b997eb652286ff6238ec1aa2990f,51.475164,-0.213664,1,Slow,3.7,"('Type2',)",ubitricity
2d42b32874e9b04e03ac3a0f0d720003,51.470748,-0.185661,1,Slow,3.7,"('Type2',)",ubitricity
99ed9793dd8ac3da83c25e67c4c279e0,51.49901,-0.22182,1,Slow,3.7,"('Type2',)",ubitricity
16b3c684e83d985bb7b493cf75bbb145,51.4751,-0.21776,1,Slow,3.7,"('Type2',)",ubitricity
b9e709f4f1746948deb89e8928f336f9,51.500678,-0.223685,1,Slow,3.7,"('Type2',)",ubitricity
963c2bccacb9493abc23a180c59be878,51.477199,-0.207077,1,Slow,3.7,"('Type2',)",ubitricity
b9dc8b92154c5ca275013df3e4926e64,51.494614,-0.20647,1,Slow,3.7,"('Type2',)",ubitricity
3eef284e80280be9aff8a80800dae3f3,51.479607,-0.212592,1,Slow,3.7,"('Type2',)",ubitricity
9e2783fe916f396f121e4d3c1b68637f,51.473064,-0.193539,1,Slow,3.7,"('Type2',)",ubitricity
48a81716197377a92eca05ae8bcf0c5d,51.475067,-0.19851,1,Slow,3.7,"('Type2',)",ubitricity
b9473b5f30a92aafb1634733f7749524,51.498921,-0.221576,1,Slow,3.7,"('Type2',)",ubitricity
37a846c5cca3fd0057eefecccb870855,51.49688,-0.21763,1,Slow,3.7,"('Type2',)",ubitricity
dda6587974d146e126e57928c53968cd,51.46647,-0.19673,1,Slow,3.7,"('Type2',)",ubitricity
68f0f6a1277fa074f52ff5886748dbf3,51.49801,-0.22052,1,Slow,3.7,"('Type2',)",ubitricity
85fe1639a19f0e3e064ff2ea6ba590ed,51.484694,-0.200908,1,Slow,3.7,"('Type2',)",ubitricity
b6d9cf9a38d8218beee65136aec5fce8,51.494515,-0.206205,1,Slow,3.7,"('Type2',)",ubitricity
e3c334a342fbb0c5e07e6d67ad4f66ee,51.47369,-0.21637,1,Slow,3.7,"('Type2',)",ubitricity
07b71b1f42d94941d25656f9887ec6f1,51.475238,-0.213646,1,Slow,3.7,"('Type2',)",ubitricity
4687c1cb9e32a2d1d0a636a849b46c07,51.473018,-0.193506,1,Slow,3.7,"('Type2',)",ubitricity
a676ef8776553397803dfba191c9da9e,51.48597,-0.20836,1,Slow,3.7,"('Type2',)",ubitricity
77cb0f00a09e329ee7926ef1d7c66518,51.473825,-0.127382,1,Slow,3.7,"('Type2',)",ubitricity
8d347b0713d12b6ed38cd0ad18495d4d,51.470848,-0.11758,1,Slow,3.7,"('Type2',)",ubitricity
73a1d38643d3a76a28b845f35e0c2745,51.446857,-0.121994,1,Slow,3.7,"('Type2',)",ubitricity
1001d59c2b2ce9dbc0c5cd2f895caa37,51.457896,-0.12249,1,Slow,3.7,"('Type2',)",ubitricity
81e50a7fa265a8449a3e26bacb9d1c88,51.477736,-0.114354,1,Slow,3.7,"('Type2',)",ubitricity
94137d7f34cd241d9af566be661342e4,51.477755,-0.113914,1,Slow,3.7,"('Type2',)",ubitricity
485df165e87a50605708a2bc84d45d6b,51.460665,-0.123625,1,Slow,3.7,"('Type2',)",ubitricity
5c77de861205d50d09f6d745ed3a520d,51.440705,-0.12211,1,Slow,3.7,"('Type2',)",ubitricity
57c95c5d61693b26f01479fb21da8752,51.467678,-0.123066,1,Slow,3.7,"('Type2',)",ubitricity
81c893892f332e26d4895fdc8b9ad82e,51.456301,-0.128025,1,Slow,3.7,"('Type2',)",ubitricity
421f6f72a1bbb03bf6b5de84d10f7c27,51.45307,-0.138566,1,Slow,3.7,"('Type2',)",ubitricity
75a796c1a072d731e2210427610a52e8,51.461211,-0.123786,1,Slow,3.7,"('Type2',)",ubitricity
512a67f3c2573a9704028bb554bf44e1,51.464578,-0.111667,1,Slow,3.7,"('Type2',)",ubitricity
abca41e6b2420fd54b5498903222d0bd,51.436914,-0.120711,1,Slow,3.7,"('Type2',)",ubitricity
5f93cadf88e775ae540ef0a0b839373d,51.442208,-0.130659,1,Slow,3.7,"('Type2',)",ubitricity
ac56fec351c48c80bf87e1565034efe6,51.476289,-0.109055,1,Slow,3.7,"('Type2',)",ubitricity
64b1dec8706b666ee1382d44e2589ec7,51.468329,-0.123884,1,Slow,3.7,"('Type2',)",ubitricity
12bb6b22328ff860f3a7e98ade24dbc5,51.517782,-0.130023,1,Slow,3.7,"('Type2',)",ubitricity
13f2061bef9b0eb8a12e8cd762c68e78,51.522851,-0.113537,1,Slow,3.7,"('Type2',)",ubitricity
3d2c58b49ad56f76a00a991fdb283798,51.541668,-0.135499,1,Slow,3.7,"('Type2',)",ubitricity
b790198028e7b75cde4173bc1c825c64,51.538767,-0.147251,1,Slow,3.7,"('Type2',)",ubitricity
41212a9d660d861b9d5bd9c37de55961,51.529084,-0.142585,1,Slow,3.7,"('Type2',)",ubitricity
7566e16caca64683927ae8657adbf956,51.529108,-0.143416,1,Slow,3.7,"('Type2',)",ubitricity
f8b7548640ea5e5e49065484c792ce6f,51.540094,-0.130843,1,Slow,3.7,"('Type2',)",ubitricity
2d8d607eebaed8ebe7ab545194237fae,51.538567,-0.136594,1,Slow,3.7,"('Type2',)",ubitricity
f49cc4ca4cdadcf27523ee0eb6908bf8,51.536163,-0.143204,1,Slow,3.7,"('Type2',)",ubitricity
28bde6c83b6239dbd65137fe015fbf21,51.544919,-0.127143,1,Slow,3.7,"('Type2',)",ubitricity
d8cca0e2e9a91d7a54349b03f0532772,51.544277,-0.126977,1,Slow,3.7,"('Type2',)",ubitricity
f2be8a092d43c526b10b8ed00c07f614,51.545228,-0.142978,1,Slow,3.7,"('Type2',)",ubitricity
a52123d1a17710351a6a1c66dde6b8ee,51.544398,-0.143976,1,Slow,3.7,"('Type2',)",ubitricity
92fb1a68b412d1f8a31b1dd8c8e2ef16,51.545618,-0.143869,1,Slow,3.7,"('Type2',)",ubitricity
52de92b7a495fb318601c28ff6edc01f,51.545248,-0.127375,1,Slow,3.7,"('Type2',)",ubitricity
8a6ced04e8aa73b38e127d57b5707215,51.528867,-0.142614,1,Slow,3.7,"('Type2',)",ubitricity
d641a61027e21d4a41dc2e2e8f16d0b7,51.523691,-0.138698,1,Slow,3.7,"('Type2',)",ubitricity
9cf727482cff1eec382ea1cba007d909,51.535587,-0.142735,1,Slow,3.7,"('Type2',)",ubitricity
c251ddeaf2bedd191d5251eb4015b8d1,51.456438,-0.155122,1,Slow,3.7,"('Type2',)",ubitricity
fb4ba51f64645d92a4d171185649f5cf,51.456787,-0.155424,1,Slow,3.7,"('Type2',)",ubitricity
d21e57c18896f7a671e877fb588239b2,51.466504,-0.105745,1,Slow,3.7,"('Type2',)",ubitricity
f3cc098e00f067307a307488cba333c7,51.461304,-0.105451,1,Slow,3.7,"('Type2',)",ubitricity
127f87501a6abc7215ac0aac4f95b6b2,51.46671,-0.119447,1,Slow,3.7,"('Type2',)",ubitricity
dc33b93e01c3b3ce4269868811f3b08d,51.466531,-0.120182,1,Slow,3.7,"('Type2',)",ubitricity
3815e5daff7da1b6719c794b3dd75c36,51.451697,-0.116822,1,Slow,3.7,"('Type2',)",ubitricity
873399fd80a7a1dfd548791bbd367c67,51.45139,-0.116822,1,Slow,3.7,"('Type2',)",ubitricity
d058119339a228a264b25bbd79b8b33d,51.46988,-0.137054,1,Slow,3.7,"('Type2',)",ubitricity
663505be9a16bb557423d4d7af8f9cba,51.451125,-0.128732,1,Slow,3.7,"('Type2',)",ubitricity
7e59f968e71cdbee2d0390e970d2dd9f,51.450117,-0.128715,1,Slow,3.7,"('Type2',)",ubitricity
128433173bd991b5f6d7493f2d98ffcc,51.532667,-0.133123,1,Slow,3.7,"('Type2',)",ubitricity
7f377b197165193c269712a9cd1ebf95,51.491199,-0.24412,1,Slow,3.7,"('Type2',)",ubitricity
5c1bcd1407cdd3d4439d55c2ba2a6eac,51.49589,-0.23363,1,Slow,3.7,"('Type2',)",ubitricity
c888860e9c489c1442f60494df027d90,51.49587,-0.23334,1,Slow,3.7,"('Type2',)",ubitricity
744985f197875eb862489f9906e5d33e,51.528367,-0.10173,1,Slow,3.7,"('Type2',)",ubitricity
563b742abc882bde132a174154552884,51.5457,-0.090618,1,Slow,3.7,"('Type2',)",ubitricity
bef42c6f4520492d3229fa2d1e24e796,51.542284,-0.106491,1,Slow,3.7,"('Type2',)",ubitricity
a057a59770d076d959cc9b8339037f48,51.52828,-0.101919,1,Slow,3.7,"('Type2',)",ubitricity
69223cd24c17e1becccbf45e75be86b8,51.532981,-0.121601,1,Slow,3.7,"('Type2',)",ubitricity
b71be6158db795110d0fdb889d72171c,51.533466,-0.120634,1,Slow,3.7,"('Type2',)",ubitricity
9d305702554e4c15159284e751c14d8c,51.533469,-0.12067,1,Slow,3.7,"('Type2',)",ubitricity
40297b103a00d837cb5a91a9cac23441,51.48967,-0.18915,1,Slow,5.0,"('Type2',)",ubitricity
7d806c9058c2b2f675b33fd861750308,51.49695,-0.183442,1,Slow,3.7,"('Type2',)",ubitricity
c3d958586dcb4df502fa180063803a94,51.494602,-0.158876,1,Slow,3.7,"('Type2',)",ubitricity
ff9bfe46f7454aad8e84a79a2a947377,51.507205,-0.195209,1,Slow,3.7,"('Type2',)",ubitricity
19c65b296289e82c4f9621904f818798,51.500164,-0.205544,1,Slow,3.7,"('Type2',)",ubitricity
a2c1ff74acc32d75029c060558f50d28,51.490706,-0.191501,1,Slow,3.7,"('Type2',)",ubitricity
45b864a890609ca3364bc1f8db9251e2,51.504129,-0.193031,1,Slow,3.7,"('Type2',)",ubitricity
8585e3ef66f8d1bc4b1856e529ecdd2c,51.491768,-0.19194,1,Slow,3.7,"('Type2',)",ubitricity
5f6cf32c38c1ca47bb47534611d55824,51.491082,-0.177697,1,Slow,3.7,"('Type2',)",ubitricity
5825afacb6cd4cd420b8671296dbb29f,51.506975,-0.194722,1,Slow,3.7,"('Type2',)",ubitricity
67269c036d97dccf8316fc9892954109,51.543314,-0.039737,1,Slow,3.7,"('Type2',)",ubitricity
3041888f78844b286564c3c576df7b96,51.542526,-0.063463,1,Slow,3.7,"('Type2',)",ubitricity
e780d0482ca5cbf18e88435efbe58333,51.549815,-0.071497,1,Slow,3.7,"('Type2',)",ubitricity
ce9920ac9521bd85f15394aabcc3ad83,51.549775,-0.069859,1,Slow,3.7,"('Type2',)",ubitricity
e5e6bf4f5554b6f9244f605136d6888b,51.5385,-0.051357,1,Slow,3.7,"('Type2',)",ubitricity
473047aea4ad7546f025874d557e431e,51.542444,-0.083374,1,Slow,3.7,"('Type2',)",ubitricity
ff079df536ba9f5cc6ea9a056d8e4b1c,51.523383,-0.08315,1,Slow,3.7,"('Type2',)",ubitricity
2811a99e594c3cda28b86d3a94a0550f,51.523588,-0.083102,1,Slow,3.7,"('Type2',)",ubitricity
877e4a3ccef92bde8b3c76fb9c3d67a7,51.523792,-0.082951,1,Slow,3.7,"('Type2',)",ubitricity
6b5b044879eea348b40407ab70d12aa9,51.542425,-0.083771,1,Slow,3.7,"('Type2',)",ubitricity
bae12df2aaadaecd1064e1b82d0094d7,51.539501,-0.057749,1,Slow,3.7,"('Type2',)",ubitricity
f4ba52deac04bbf1d37d329894774b3f,51.539495,-0.05787,1,Slow,3.7,"('Type2',)",ubitricity
ea90a4812ed10cb09ee7c1ba94498d70,51.537917,-0.050065,1,Slow,3.7,"('Type2',)",ubitricity
85617c1aa79c47e1a5a41ee38a7b25bd,51.542239,-0.044021,1,Slow,3.7,"('Type2',)",ubitricity
0fc644706b8e7ab2ad9fb02552ebc7b5,51.542297,-0.044385,1,Slow,3.7,"('Type2',)",ubitricity
654adcd0696a9cfff110373a8858629b,51.542518,-0.06405,1,Slow,3.7,"('Type2',)",ubitricity
05039260bac431bc29c70967d9c485f7,51.541763,-0.044482,1,Slow,3.7,"('Type2',)",ubitricity
24e2c4699e2fe1ae11d6845c65a9a12c,51.5392,-0.05038,1,Slow,3.7,"('Type2',)",ubitricity
a699b7b5b42180d235ab0d87fafce345,51.542484,-0.044672,1,Slow,3.7,"('Type2',)",ubitricity
97cdc9382a1d068b806b8d3eacbd0cae,51.54255,-0.06399,1,Slow,3.7,"('Type2',)",ubitricity
277e83942ae487287a674d5aa14f8c77,51.541779,-0.044103,1,Slow,3.7,"('Type2',)",ubitricity
9eacf80c8de88519fb56590e86cbf541,51.5432,-0.039536,1,Slow,3.7,"('Type2',)",ubitricity
0f0d2f5cf7dbdc532b918660f473d2ae,51.539061,-0.050281,1,Slow,3.7,"('Type2',)",ubitricity
afd5d10deb1128fc755a063bf02ec3f5,51.500171,-0.205791,1,Slow,3.7,"('Type2',)",ubitricity
fdcaddcdeda259d0e173e41dc4c9a027,51.5003,-0.205298,1,Slow,3.7,"('Type2',)",ubitricity
a474e578e37223bca732463e5682ad61,51.495496,-0.200385,1,Slow,3.7,"('Type2',)",ubitricity
03212b3430c05cad3be030c21d74e752,51.495736,-0.201982,1,Slow,3.7,"('Type2',)",ubitricity
037c15486e7547238a4ae16526803112,51.495371,-0.175035,1,Slow,3.7,"('Type2',)",ubitricity
309b21599d51c4cce432b4d5ec3ab259,51.498533,-0.196639,1,Slow,3.7,"('Type2',)",ubitricity
620205d5e98c182f2a737ba97c9b4dab,51.502741,-0.209417,1,Slow,3.7,"('Type2',)",ubitricity
18161603dcdb61bc94139ce6e7e76419,51.498225,-0.193805,1,Slow,3.7,"('Type2',)",ubitricity
fe70cd58c246614fa28eafc8570f1d81,51.495266,-0.174841,1,Slow,3.7,"('Type2',)",ubitricity
e39afb2d2bef4545c0999abfa501f0cf,51.502942,-0.209574,1,Slow,3.7,"('Type2',)",ubitricity
922f9d89e246084ff05f79284854a712,51.494374,-0.242887,1,Slow,3.7,"('Type2',)",ubitricity
5dd5daca337e90569730a8090e46acf8,51.49813,-0.22077,1,Slow,3.7,"('Type2',)",ubitricity
7a31016427a1e36f109ebc3f59f82c92,51.479553,-0.221661,1,Slow,3.7,"('Type2',)",ubitricity
60d867d238f8e3bfa14bc51bfd8127bd,51.493498,-0.180881,1,Slow,3.7,"('Type2',)",ubitricity
dc7f605c3d0c3c0fcc41b1ee5f494e5d,51.526857,-0.098214,1,Slow,3.7,"('Type2',)",ubitricity
9a4d0c02720d50697de4a1d53e6b222b,51.493598,-0.180359,1,Slow,3.7,"('Type2',)",ubitricity
7235b8cfc72447ad844df4ff5edc5a65,51.492972,-0.173577,1,Slow,3.7,"('Type2',)",ubitricity
cebf5b34ce0cef90bec6e266d0cdd95a,51.529541,-0.114982,1,Slow,3.7,"('Type2',)",ubitricity
31828d63319774142e5322806432a27a,51.529469,-0.115034,1,Slow,3.7,"('Type2',)",ubitricity
677402edccad1017c26431e2b69da61e,51.529469,-0.115034,1,Slow,3.7,"('Type2',)",ubitricity
536b6cdafca2ed6eab8ec7fd981fea65,51.528919,-0.114267,1,Slow,3.7,"('Type2',)",ubitricity
fd19554ceaa7801c874e9062855a6cd7,51.496037,-0.160318,1,Slow,3.7,"('Type2',)",ubitricity
c7d33f36f54c2044e5b868264094bc49,51.495754,-0.160178,1,Slow,3.7,"('Type2',)",ubitricity
a0e929aeeb5054acbc90f18f7a5bf72a,51.491224,-0.193107,1,Slow,3.7,"('Type2',)",ubitricity
8f47c416fbf5e196ca4ca28eefac3bbb,51.490799,-0.175351,1,Slow,3.7,"('Type2',)",ubitricity
26b5cde672f7bf8313a5982d6f192e90,51.533699,-0.038039,1,Slow,3.7,"('Type2',)",ubitricity
960e27da1fca2a878f73387752f47e8b,51.526864,-0.03164,1,Slow,3.7,"('Type2',)",ubitricity
8aadb02b488d727363e3877bae188b00,51.52753,-0.032291,1,Slow,3.7,"('Type2',)",ubitricity
553faad115155c7702de1d3f6b7683d1,51.533852,-0.037654,1,Slow,3.7,"('Type2',)",ubitricity
a428efa6c2e5d07d17174ff9563d9e98,51.512829,-0.047492,1,Slow,3.7,"('Type2',)",ubitricity
6dac3e26c4f8349dd4d90a2cbd1e7646,51.512859,-0.046814,1,Slow,3.7,"('Type2',)",ubitricity
66fab714910d6eaadf56b40a5af7ea8b,51.512477,-0.047478,1,Slow,3.7,"('Type2',)",ubitricity
4aec30307fe530ba9537842b35eb5fa1,51.506183,-0.054172,1,Slow,3.7,"('Type2',)",ubitricity
ad5f96270cd10426aad812fdd2760233,51.506842,-0.052599,1,Slow,3.7,"('Type2',)",ubitricity
ec51a77288a61f34f488c8c7ade49249,51.524351,-0.066748,1,Slow,3.7,"('Type2',)",ubitricity
bfbed6230806a2d59fdfdec958e65f6e,51.52416,-0.069911,1,Slow,3.7,"('Type2',)",ubitricity
c8656bbe7b9596522ad5e9b77834c5e8,51.525122,-0.066422,1,Slow,3.7,"('Type2',)",ubitricity
9a890c60993e189512a1316fee17b963,51.530717,-0.065843,1,Slow,3.7,"('Type2',)",ubitricity
1fbb36dec2fc759c99725d6718ebe72b,51.513974,-0.047106,1,Slow,3.7,"('Type2',)",ubitricity
af9f5d757506af805c417025da891bcd,51.513917,-0.048179,1,Slow,3.7,"('Type2',)",ubitricity
abe28f78fe096c086384706cddc94de4,51.515018,-0.157229,1,Slow,3.7,"('Type2',)",ubitricity
fc6ac6bedc741ae9131b55f9309c0037,51.492967,-0.142259,1,Slow,3.7,"('Type2',)",ubitricity
e9db1027039edf04b8f623398c62441c,51.52085,-0.157426,1,Slow,3.7,"('Type2',)",ubitricity
6ccfc750f53ceff95ba955d0b070cb0a,51.496887,-0.127973,1,Slow,3.7,"('Type2',)",ubitricity
6539a61c36bab861029d0127c4653f32,51.489838,-0.133267,1,Slow,3.7,"('Type2',)",ubitricity
d8f83dab00109d0cecc260ec858fb35d,51.490236,-0.139105,1,Slow,3.7,"('Type2',)",ubitricity
8092e462d60ff8e2cc0d8c55168bb047,51.491041,-0.141458,1,Slow,3.7,"('Type2',)",ubitricity
5d3dee7100faa7bcff73731ddd038f31,51.490552,-0.14102,1,Slow,3.7,"('Type2',)",ubitricity
fd02449356b343e0f2b81008c5e4e5d2,51.490445,-0.139269,1,Slow,3.7,"('Type2',)",ubitricity
c870d17218706e94dc43a5a0db1104fb,51.489538,-0.138934,1,Slow,3.7,"('Type2',)",ubitricity
2fa97af8329cea9e3646656b9cb28f35,51.490797,-0.138019,1,Slow,3.7,"('Type2',)",ubitricity
36c7cd34a5ba68f6e324133e2bff2a04,51.487956,-0.14119,1,Slow,3.7,"('Type2',)",ubitricity
b7aaa86c38d234cc610036399a71f08a,51.488766,-0.143356,1,Slow,3.7,"('Type2',)",ubitricity
36818bed02f8971b0a271bf4ec179d7e,51.517145,-0.152214,1,Slow,3.7,"('Type2',)",ubitricity
3c57d55efe23adf23affe29075a8ede5,51.489512,-0.144893,1,Slow,3.7,"('Type2',)",ubitricity
c95fb5808427c136e697d4bdc6676de3,51.490102,-0.141431,1,Slow,3.7,"('Type2',)",ubitricity
50ea1636e50827e1b999f0dc5fa06214,51.521281,-0.145618,1,Slow,3.7,"('Type2',)",ubitricity
17fb78cf74451a63b0d22151ae4dfa42,51.489132,-0.143979,1,Slow,3.7,"('Type2',)",ubitricity
c57c49c8fd842f101cd2a00aea873846,51.489229,-0.141774,1,Slow,3.7,"('Type2',)",ubitricity
703511408a5ea9a8e682ed57da530606,51.488421,-0.140059,1,Slow,3.7,"('Type2',)",ubitricity
0b18999c08770e9ceb25fda12b27eb2e,51.496895,-0.128714,1,Slow,3.7,"('Type2',)",ubitricity
79729a1bc20595c775b50c03af86b055,51.496095,-0.150377,1,Slow,3.7,"('Type2',)",ubitricity
ab33b677ce134ff860df9a47effb27ca,51.514889,-0.157174,1,Slow,3.7,"('Type2',)",ubitricity
78ee339114856fdb41561ea36fb3aff4,51.523161,-0.164591,1,Slow,3.7,"('Type2',)",ubitricity
43ce4e33cd6d9ac5be86b1bec5422891,51.496095,-0.150377,1,Slow,3.7,"('Type2',)",ubitricity
546547320d3e6dc0907cb47f1e55063d,51.495507,-0.152678,1,Slow,3.7,"('Type2',)",ubitricity
ba45f385393b859f5027f544416934d1,51.508647,-0.150289,1,Slow,3.7,"('Type2',)",ubitricity
b4d38a1fab2d085badf700c6a77c4dbc,51.486702,-0.137827,1,Slow,3.7,"('Type2',)",ubitricity
59396f7414f89991d14c6fa956924bc1,51.518365,-0.139669,1,Slow,3.7,"('Type2',)",ubitricity
44f9947f46fae19049ea9c80e006cefe,51.48623,-0.137776,1,Slow,3.7,"('Type2',)",ubitricity
3c44ee0ba1544062e56072efd77a40c6,51.508812,-0.149514,1,Slow,3.7,"('Type2',)",ubitricity
1370008be5862654de12cc11e3f990b2,51.499962,-0.176602,1,Slow,3.7,"('Type2',)",ubitricity
30ff033dbf4a8d225f4880408cd69c0c,51.499978,-0.176688,1,Slow,3.7,"('Type2',)",ubitricity
47dfc8ff4929ef7202a7f1cc6312b105,51.487823,-0.138446,1,Slow,3.7,"('Type2',)",ubitricity
a5a98043b0339292d4479dd86be7ddbd,51.499868,-0.176521,1,Slow,3.7,"('Type2',)",ubitricity
703e74f304a946e2b24e9cfa8069ceab,51.485751,-0.137609,1,Slow,3.7,"('Type2',)",ubitricity
3ddff65c1219f2cdb699c597bfbdedc4,51.518485,-0.139881,1,Slow,3.7,"('Type2',)",ubitricity
5fd851348aa737ae39085e6c95376c5a,51.486185,-0.137911,1,Slow,3.7,"('Type2',)",ubitricity
c220ed30f545a968c91de1e5cb019eab,51.52377,-0.165018,1,Slow,3.7,"('Type2',)",ubitricity
d29ee932b7e5e4c9ad366125efd93460,51.520848,-0.146447,1,Slow,3.7,"('Type2',)",ubitricity
3df416f5b8103355883cfd1517442cda,51.514528,-0.160607,1,Slow,3.7,"('Type2',)",ubitricity
59ddc55f3d2f2e20aaf626e342fdcac0,51.522135,-0.149921,1,Slow,3.7,"('Type2',)",ubitricity
5675ff355e7ef06f662368d3f854c1e0,51.524337,-0.165298,1,Slow,3.7,"('Type2',)",ubitricity
b846377bd1b90dfb0bccb16182344431,51.522418,-0.150193,1,Slow,3.7,"('Type2',)",ubitricity
8fb49549f3fd57ad0a80e57825f9e41e,51.52182,-0.149928,1,Slow,3.7,"('Type2',)",ubitricity
a390cc25cb3fe73e3a4ce9fbc03f73a5,51.518828,-0.150543,1,Slow,3.7,"('Type2',)",ubitricity
6eb291eedcb0b82a3ee3ddea97598a7c,51.521287,-0.149635,1,Slow,3.7,"('Type2',)",ubitricity
c453c9a8d92f1f6aacc21f424469c20c,51.520719,-0.149381,1,Slow,3.7,"('Type2',)",ubitricity
22b9f6762c2f4bb1f19523885fa1ee93,51.517474,-0.15779,1,Slow,3.7,"('Type2',)",ubitricity
26e3db8acc7382082eb2a171fe1a6423,51.516159,-0.158722,1,Slow,3.7,"('Type2',)",ubitricity
740910b11f8b9294f49f8842bd3527fb,51.516448,-0.152936,1,Slow,3.7,"('Type2',)",ubitricity
fc6e16cb17b494762664b72629c0e481,51.516527,-0.151946,1,Slow,3.7,"('Type2',)",ubitricity
c5194e3607ca860e4118b1ef63533c95,51.499715,-0.179487,1,Slow,3.7,"('Type2',)",ubitricity
cd4e651a08c8504d50cc18e7fa79264c,51.515201,-0.15978,1,Slow,3.7,"('Type2',)",ubitricity
01b905e697f400031bdc8f27d1ff6a15,51.516821,-0.152165,1,Slow,3.7,"('Type2',)",ubitricity
11b8c4b83257767db88f44c539e0ae0c,51.521864,-0.149935,1,Slow,3.7,"('Type2',)",ubitricity
d30dc48a64895a99ad49325fa6127943,51.520379,-0.159963,1,Slow,3.7,"('Type2',)",ubitricity
a000bd6de227fa3950bd4fafb15fdd94,51.522412,-0.150256,1,Slow,3.7,"('Type2',)",ubitricity
ce5f87af88939d59cf73ca61cba8c260,51.520241,-0.144905,1,Slow,3.7,"('Type2',)",ubitricity
08bcc98f75d7d40053dc80722bdc117b,51.515276,-0.159857,1,Slow,3.7,"('Type2',)",ubitricity
5af2ae04578d516677e4395ecdc2e447,51.516197,-0.160337,1,Slow,3.7,"('Type2',)",ubitricity
24352db158a5ab1d3a54b01df93f0e94,51.516442,-0.160206,1,Slow,3.7,"('Type2',)",ubitricity
ed5bc092e2225b6dbc4e75538f0a3f49,51.520637,-0.160654,1,Slow,3.7,"('Type2',)",ubitricity
b76db0db88fbf15e6bba96a5a14f4e8e,51.519112,-0.159962,1,Slow,3.7,"('Type2',)",ubitricity
6194cc9700fea83e075b89f677d3559d,51.496439,-0.151927,1,Slow,3.7,"('Type2',)",ubitricity
9306c246453aa856c788698f5f3b8954,51.496047,-0.152376,1,Slow,3.7,"('Type2',)",ubitricity
30eeffbafe416c04ec39dbed87067199,51.519877,-0.162811,1,Slow,3.7,"('Type2',)",ubitricity
24ff6e7b2817eb85a32f293c3ed208b5,51.522169,-0.14507,1,Slow,3.7,"('Type2',)",ubitricity
1de30cc7ed2f614a236fea344df3aa76,51.521965,-0.146617,1,Slow,3.7,"('Type2',)",ubitricity
c1b20b7a1645ead7a86e72f2084432ba,51.519945,-0.16248,1,Slow,3.7,"('Type2',)",ubitricity
79a39dd14a3348c7435223d547c912ee,51.518266,-0.155109,1,Slow,3.7,"('Type2',)",ubitricity
eba12c8977cdf8a9b7351c33f03d205c,51.51832,-0.154866,1,Slow,3.7,"('Type2',)",ubitricity
fd128b339f090cc727846f5645876ff3,51.517734,-0.157879,1,Slow,3.7,"('Type2',)",ubitricity
046dd69e7a537723f33b37df7125f4bc,51.518283,-0.158085,1,Slow,3.7,"('Type2',)",ubitricity
9286323c820f3b6a42ba23c4b90fe618,51.517989,-0.15805,1,Slow,3.7,"('Type2',)",ubitricity
5c8887e856d03bf0e2f205b184048890,51.517201,-0.157629,1,Slow,3.7,"('Type2',)",ubitricity
0826d9cc9b76a253d855ecaa01096827,51.50154,-0.164949,1,Slow,3.7,"('Type2',)",ubitricity
89a704ea48e8ab3ae7e824124beaa3a9,51.500897,-0.164625,1,Slow,3.7,"('Type2',)",ubitricity
7c6e085c69ac9575fb051f82ad533b96,51.536587,-0.097703,1,Slow,3.7,"('Type2',)",ubitricity
20168047a2debfec6314fb6f6cc4b5c7,51.491149,-0.193257,1,Slow,3.7,"('Type2',)",ubitricity
b8ad28dbcb5744984d288f0fe9073038,51.500413,-0.183956,1,Slow,3.7,"('Type2',)",ubitricity
663c0f1b483b20a2533032c06c3726b0,51.500142,-0.183948,1,Slow,3.7,"('Type2',)",ubitricity
3dacff94085fb9e9710035260b10d934,51.492041,-0.187039,1,Slow,3.7,"('Type2',)",ubitricity
c45336d8b21a80da28d793136fbf00b8,51.490692,-0.178519,1,Slow,3.7,"('Type2',)",ubitricity
dd3487dcff2313449d7585bd0dbc13d9,51.488103,-0.178768,1,Slow,3.7,"('Type2',)",ubitricity
0bf79a3ba787b32a7ed2df8844e7dd8e,51.495877,-0.201913,1,Slow,3.7,"('Type2',)",ubitricity
059e95ce5b8e879e298c322efd8c665f,51.491712,-0.196876,1,Slow,3.7,"('Type2',)",ubitricity
26c6bb60b6960b47904200f4e20cda72,51.507372,-0.199739,1,Slow,3.7,"('Type2',)",ubitricity
16c7a7d79f102b045be31dbf8c4bbfe6,51.488608,-0.179358,1,Slow,3.7,"('Type2',)",ubitricity
cef3206706d54a760d1a7a0bcfe4255c,51.501928,-0.199713,1,Slow,3.7,"('Type2',)",ubitricity
ba5e0fe7b7c422762a71b25fee92972d,51.49258,-0.199037,1,Slow,3.7,"('Type2',)",ubitricity
929859167581faa07e4d75924541b2eb,51.503297,-0.212418,1,Slow,3.7,"('Type2',)",ubitricity
310680fe6e14f95d1f140f1a80f0bfed,51.507372,-0.199739,1,Slow,3.7,"('Type2',)",ubitricity
237b1c2048754ef2200e210ee04ef2f1,51.494047,-0.157229,1,Slow,3.7,"('Type2',)",ubitricity
9e635f024000a32d80b867514a1d4cbe,51.495892,-0.201756,1,Slow,3.7,"('Type2',)",ubitricity
5c484de487dce37556ee59ebe0941a4e,51.499604,-0.202626,1,Slow,3.7,"('Type2',)",ubitricity
9bbb4f5b37658e8d265cd98c5270e5e8,51.498654,-0.182883,1,Slow,3.7,"('Type2',)",ubitricity
ddc5d0f7cf25f1e72a8f251da82fdebb,51.496195,-0.179122,1,Slow,3.7,"('Type2',)",ubitricity
14684cb296d97bb3864a4512a9eb0789,51.490453,-0.197552,1,Slow,3.7,"('Type2',)",ubitricity
3dd3392e2c84c270a91da240aaff3ed8,51.493849,-0.189657,1,Slow,3.7,"('Type2',)",ubitricity
aad7b631d1b41fa90855a81f85296a5d,51.495692,-0.15722,1,Slow,3.7,"('Type2',)",ubitricity
b6c47a7beb6a9d82dd6149b6643935e4,51.493965,-0.189461,1,Slow,3.7,"('Type2',)",ubitricity
3049f7815aa6d0a717f6703971a6680a,51.520937,-0.149554,1,Slow,3.7,"('Type2',)",ubitricity
105519493e195c8369f21d30c9e2b471,51.491453,-0.140273,1,Slow,3.7,"('Type2',)",ubitricity
eca061aef4d005129332eefbfeb75680,51.496866,-0.129591,1,Slow,3.7,"('Type2',)",ubitricity
f4298a1737da0d2fc0180b613f12a807,51.49069,-0.14347,1,Slow,3.7,"('Type2',)",ubitricity
c9a543dad6d3b323f49b5afdc9b2d9ae,51.491682,-0.140751,1,Slow,3.7,"('Type2',)",ubitricity
dddd01aa43c62b47fc050bd49f44f0c3,51.520722,-0.158309,1,Slow,3.7,"('Type2',)",ubitricity
12132e9aeff18cde24cb08b1edef3bf0,51.52067,-0.158598,1,Slow,3.7,"('Type2',)",ubitricity
c96c0749243dae63b5f64c8f6037565d,51.494007,-0.15176,1,Slow,3.7,"('Type2',)",ubitricity
1c7877be20abcbd096a7d3e0c9e45e0e,51.491452,-0.140274,1,Slow,3.7,"('Type2',)",ubitricity
101b9480db177a64ededa2bde05d733e,51.500568,-0.152833,1,Slow,3.7,"('Type2',)",ubitricity
c2446b09db950fd47fa31442189d8bf5,51.514776,-0.158767,1,Slow,3.7,"('Type2',)",ubitricity
9d4e5ea4418508b6a23445e3089f4898,51.514899,-0.157759,1,Slow,3.7,"('Type2',)",ubitricity
508e17f005a1be75043fb0515d067f79,51.516442,-0.154128,1,Slow,3.7,"('Type2',)",ubitricity
d629a225c1a51456b55e4a2b506f2847,51.516598,-0.153899,1,Slow,3.7,"('Type2',)",ubitricity
6376cf9d9ffd7834017c4afc8505b635,51.502147,-0.197086,1,Slow,3.7,"('Type2',)",ubitricity
6b7b766093e70bd5a5347227813b2916,51.491491,-0.188948,1,Slow,3.7,"('Type2',)",ubitricity
816c4f16e757a6398d021c827d20ba83,51.493752,-0.195623,1,Slow,3.7,"('Type2',)",ubitricity
e6ec41147499de19c60b1afd4f3c4c0c,51.490462,-0.189259,1,Slow,3.7,"('Type2',)",ubitricity
47cd0dad82d80e6545d96c0fe0fe8da1,51.497103,-0.207916,1,Slow,3.7,"('Type2',)",ubitricity
7a25ce3a3049c1ee6641f34a98ed44e0,51.491823,-0.184985,1,Slow,3.7,"('Type2',)",ubitricity
e02d94cf99a7776592273d5e52876169,51.491631,-0.185492,1,Slow,3.7,"('Type2',)",ubitricity
83419ff790d5005f4c36805e7a3d0dfb,51.483719,-0.198331,1,Slow,3.7,"('Type2',)",ubitricity
c35ff0a7906f5eafe4b969b3554da30a,51.494255,-0.243958,1,Slow,3.7,"('Type2',)",ubitricity
7222ac0087f97fcad1c4a56fe8f2ca13,51.491713,-0.196396,1,Slow,3.7,"('Type2',)",ubitricity
fa4f65768895fa09a9eae2568feced53,51.490769,-0.17739,1,Slow,3.7,"('Type2',)",ubitricity
ff8fb3e579d4faaa3f07ea27206285a3,51.49848,-0.1883,1,Slow,3.7,"('Type2',)",ubitricity
32b1073bed09595aa371135ab313e03d,51.488081,-0.134934,1,Slow,3.7,"('Type2',)",ubitricity
2d3a395255af14ec2526b9f0fcb1b20b,51.488979,-0.141285,1,Slow,3.7,"('Type2',)",ubitricity
94ec6a901d8313b90fc1ba04bef2b517,51.518437,-0.154088,1,Slow,3.7,"('Type2',)",ubitricity
48bad81a248a58b3f358dca7495142c1,51.51832,-0.154866,1,Slow,3.7,"('Type2',)",ubitricity
363f7c2e72130ff4e9ecc62bf10ea755,51.520081,-0.161759,1,Slow,3.7,"('Type2',)",ubitricity
d98065dc258b85cefbcd211d46db85b6,51.518298,-0.154389,1,Slow,3.7,"('Type2',)",ubitricity
11f2a99d4f6b5ed4a98762980b918562,51.489474,-0.133546,1,Slow,3.7,"('Type2',)",ubitricity
bce60e2e21db809b747eb00bbcbd1361,51.520142,-0.161447,1,Slow,3.7,"('Type2',)",ubitricity
fd3fa754b0ac1869050c5dd06ded3982,51.542148,-0.1065,1,Slow,3.7,"('Type2',)",ubitricity
3e6d5531c2e07abdddc4dceb7d85fde8,51.475989,-0.116467,1,Slow,3.7,"('Type2',)",ubitricity
4fadcbb166741cb5e0e1d874f2772fb6,51.457695,-0.135161,1,Slow,3.7,"('Type2',)",ubitricity
571c2a702724650148dcf7370757cda2,51.455715,-0.154016,1,Slow,3.7,"('Type2',)",ubitricity
d85cb650a0063fee493bda86e7e50ecd,51.496741,-0.192521,1,Slow,3.7,"('Type2',)",ubitricity
56c6d19ee947025ec19f9eb9b283f368,51.496642,-0.15742,1,Slow,3.7,"('Type2',)",ubitricity
4755ef76b9939a550fda7364f55f32ca,51.489947,-0.193212,1,Slow,3.7,"('Type2',)",ubitricity
66812ae75018a6ef1e4b8a2efe46c416,51.493686,-0.186836,1,Slow,3.7,"('Type2',)",ubitricity
32baa8985154c9f45d6f00c04416e904,51.498582,-0.183018,1,Slow,3.7,"('Type2',)",ubitricity
2a17cd3a45ed87c2f638afb4917b463b,51.517734,-0.157879,1,Slow,3.7,"('Type2',)",ubitricity
16770795483a4302b7f1bba0a644f312,51.490789,-0.143675,1,Slow,3.7,"('Type2',)",ubitricity
4c62ff5868c03a22ae0c7f1afed0063e,51.496439,-0.151927,1,Slow,3.7,"('Type2',)",ubitricity
41b88f496bddccec2f8fb8a7560bcdc7,51.529454,-0.141411,1,Slow,3.7,"('Type2',)",ubitricity
c2d10ce70bc6c8f53681ba384ccb840a,51.483352,-0.199258,1,Slow,3.7,"('Type2',)",ubitricity
97f257287ae66136f32d44254c40cbfd,51.517201,-0.157629,1,Slow,3.7,"('Type2',)",ubitricity
ff5cb6d5007c0a3f7e1af9336d1f523c,51.471445,-0.204736,1,Slow,3.7,"('Type2',)",ubitricity
b1b1ad3b658da1d3f0d2475b22322be0,51.479492,-0.188091,1,Slow,3.7,"('Type2',)",ubitricity
971022bc7230674181610c8ea54c5b3a,51.544734,-0.091186,1,Slow,3.7,"('Type2',)",ubitricity
e002cb174561754f3a4e1c289b307641,51.537594,-0.104592,1,Slow,3.7,"('Type2',)",ubitricity
5faf6b003ee3393304fc764342e1c9dc,51.53753,-0.106387,1,Slow,3.7,"('Type2',)",ubitricity
02d9ece9b8124af667964175280109d3,51.537571,-0.104188,1,Slow,3.7,"('Type2',)",ubitricity
cadd4f700963aa4730190b7679fa88f6,51.537539,-0.106034,1,Slow,3.7,"('Type2',)",ubitricity
4b0c2d9b3c32d6a08af16426593b2a1f,51.537556,-0.104247,1,Slow,3.7,"('Type2',)",ubitricity
c02ffbf92524766893492ff928c19176,51.530377,-0.110648,1,Slow,3.7,"('Type2',)",ubitricity
bc40641b0194aa707baed2a2d5116656,51.530341,-0.110616,1,Slow,3.7,"('Type2',)",ubitricity
9e0f960a78e6e6d6b2b8f92fbc8c1927,51.529425,-0.110377,1,Slow,3.7,"('Type2',)",ubitricity
26d5e0478dbf501cc100adffcba6acd9,51.542984,-0.114395,1,Slow,3.7,"('Type2',)",ubitricity
d6bf6e9d845d0d7241905a33317aebab,51.543556,-0.111415,1,Slow,3.7,"('Type2',)",ubitricity
c2d9d05399f4c872bd1b722fe1b9588b,51.542933,-0.114051,1,Slow,3.7,"('Type2',)",ubitricity
44f2378f4b0651daf2cb4fa277e4695e,51.543228,-0.112842,1,Slow,3.7,"('Type2',)",ubitricity
113c2058e052d550d054f82cdcab1f75,51.542772,-0.115197,1,Slow,3.7,"('Type2',)",ubitricity
cc8e05b9bde0f802f8af10273bb89d5c,51.542356,-0.116729,1,Slow,3.7,"('Type2',)",ubitricity
a433ef69e4355bf1896b0ea0f6d667d3,51.495827,-0.184556,1,Slow,5.0,"('Type2',)",ubitricity
98555e2a46b8f678592b7caba74504cf,51.4961,-0.179309,1,Slow,3.7,"('Type2',)",ubitricity
180303f320d0b3d14fb560f0a8a33f6a,51.544275,-0.129843,1,Slow,3.7,"('Type2',)",ubitricity
5cffc7404687e6f11a109ae3ca621104,51.54462,-0.13278,1,Slow,3.7,"('Type2',)",ubitricity
11d5e1fc949795fbe7a6950cf2f994e4,51.538518,-0.145542,1,Slow,3.7,"('Type2',)",ubitricity
4e788a67dca5d15d8cbe26ff7ec1cc51,51.542474,-0.146061,1,Slow,3.7,"('Type2',)",ubitricity
a6601ba88cc504a765cd798618c3fdcf,51.522851,-0.113537,1,Slow,3.7,"('Type2',)",ubitricity
98c08101aa6bfb4ac64546af86a29594,51.523222,-0.138459,1,Slow,3.7,"('Type2',)",ubitricity
c33078fd40166c45306e479b17780b4a,51.540397,-0.156851,1,Slow,3.7,"('Type2',)",ubitricity
df5ac9f24b85ab0b37d7650013516737,51.544398,-0.143976,1,Slow,3.7,"('Type2',)",ubitricity
19ede134e9c0023b6f48eb0520ecc06f,51.521527,-0.119138,1,Slow,3.7,"('Type2',)",ubitricity
7af368a8a2dd49e39acd436c204c12e1,51.52082,-0.13177,1,Slow,3.7,"('Type2',)",ubitricity
dfd95dc6eeb1e36a6d79fd7fcf144a48,51.544943,-0.13233,1,Slow,3.7,"('Type2',)",ubitricity
85a415935680d484c8de26fa6eba23ff,51.543637,-0.1473,1,Slow,3.7,"('Type2',)",ubitricity
95fb7c252162701880b013f2fceae943,51.52357,-0.141419,1,Slow,3.7,"('Type2',)",ubitricity
8d1b6bd626121f91b2b12ac0c6ba0905,51.543054,-0.140793,1,Slow,3.7,"('Type2',)",ubitricity
3c23ee6415c3642476d5e9a514c66a54,51.518144,-0.12398,1,Slow,3.7,"('Type2',)",ubitricity
ed26ff7fbdee97af83445ff6098aa5e4,51.543797,-0.141023,1,Slow,3.7,"('Type2',)",ubitricity
566b971589b228d3b6e5af8123b3c1d4,51.545326,-0.128484,1,Slow,3.7,"('Type2',)",ubitricity
859866b249b5baa3ed3f83a86ec83a62,51.524426,-0.115426,1,Slow,3.7,"('Type2',)",ubitricity
019ebd17867972b004d6683fa4c64d50,51.544928,-0.131178,1,Slow,3.7,"('Type2',)",ubitricity
5877589907765f24d5949e30ded7d21e,51.522974,-0.139037,1,Slow,3.7,"('Type2',)",ubitricity
81d88d4f508d4f0d8acdf98c2b7ddbf3,51.529281,-0.131312,1,Slow,3.7,"('Type2',)",ubitricity
3affcbb957032e3cd1c0c3f8526e5de8,51.535056,-0.143487,1,Slow,3.7,"('Type2',)",ubitricity
f410602c9c86767a50e4aa907b565e45,51.533607,-0.141407,1,Slow,3.7,"('Type2',)",ubitricity
eb98a974c6bc005e6d8217434d983c99,51.543111,-0.1341,1,Slow,3.7,"('Type2',)",ubitricity
82f060a843c94c93e1e27c2a1efb89c8,51.540094,-0.147201,1,Slow,3.7,"('Type2',)",ubitricity
4297ec6a526a0cd1356e9d1e7acdc950,51.529944,-0.128982,1,Slow,3.7,"('Type2',)",ubitricity
d1247139f201f957c314d5c00cfe76ea,51.544626,-0.138579,1,Slow,3.7,"('Type2',)",ubitricity
e637c9c15d72fcbeecdcf3bddc224054,51.543438,-0.147515,1,Slow,3.7,"('Type2',)",ubitricity
0af19bf33eb1ebf336f986ae3ca8f888,51.53749,-0.153773,1,Slow,3.7,"('Type2',)",ubitricity
58cea74fcce438569f008dbdd8b5ae84,51.535019,-0.141875,1,Slow,3.7,"('Type2',)",ubitricity
f8aac844cd8c2808caee118b003bcc17,51.539739,-0.147833,1,Slow,3.7,"('Type2',)",ubitricity
2803163d27ac58633fb69d37bff948de,51.521479,-0.133093,1,Slow,3.7,"('Type2',)",ubitricity
662580899bd43f0689c48ce711740d04,51.531195,-0.141883,1,Slow,3.7,"('Type2',)",ubitricity
877364d5dfccab34e248f361435753ce,51.544858,-0.138982,1,Slow,3.7,"('Type2',)",ubitricity
6c137d3baeb0f02943ced3d280ec4be1,51.543623,-0.145844,1,Slow,3.7,"('Type2',)",ubitricity
8865522a87f300bac8a03a4ddcbc784b,51.543785,-0.151236,1,Slow,3.7,"('Type2',)",ubitricity
d95ddfe8db8b9c7cc122c4a94e2d69ec,51.518054,-0.12494,1,Slow,3.7,"('Type2',)",ubitricity
05e870832c5a9210a4583bea3e016220,51.543734,-0.144091,1,Slow,3.7,"('Type2',)",ubitricity
0babfe8976f43f76e89b11e85ff528e7,51.515614,-0.120802,1,Slow,3.7,"('Type2',)",ubitricity
9aca5280b49e80db6fbbafc651080b09,51.523727,-0.138717,1,Slow,3.7,"('Type2',)",ubitricity
8e40e4f493267328db7ee6769e6565c8,51.535871,-0.144386,1,Slow,3.7,"('Type2',)",ubitricity
0c3b9c2c66ac96cf11e0dc755136b872,51.522196,-0.119192,1,Slow,3.7,"('Type2',)",ubitricity
8d96c207e0243d56db7fd5d4363a96f6,51.523643,-0.140151,1,Slow,3.7,"('Type2',)",ubitricity
efcf3d2770d7690312829b91b9a8a12b,51.54353,-0.134932,1,Slow,3.7,"('Type2',)",ubitricity
c477f70d2885dff00cbb6c3680fd7710,51.525514,-0.130188,1,Slow,3.7,"('Type2',)",ubitricity
2bad3b25b993455f9c56a2fc868ca9cb,51.544724,-0.138674,1,Slow,3.7,"('Type2',)",ubitricity
6a433f664db58ee955f6678d22979a00,51.546499,-0.130376,1,Slow,3.7,"('Type2',)",ubitricity
2f4e195b441580cf1d9cfc64d47e0ab2,51.543245,-0.144122,1,Slow,3.7,"('Type2',)",ubitricity
dfd9daa9afec8fc846becb997c324968,51.542861,-0.134956,1,Slow,3.7,"('Type2',)",ubitricity
620c94ced213766ab3cf11cd439f4582,51.543371,-0.131042,1,Slow,3.7,"('Type2',)",ubitricity
aaeb0dd9b00dd3c72f3d9afa8d85eae6,51.491358,-0.177938,1,Slow,3.7,"('Type2',)",ubitricity
0d57b98fb557ef2f1cc997cc175cfb27,51.491515,-0.178067,1,Slow,3.7,"('Type2',)",ubitricity
21036a2695d09deb1b9907ce00e14d3c,51.501593,-0.197732,1,Slow,3.7,"('Type2',)",ubitricity
9450e3a7d5d7ca30a03c887c841c675f,51.496923,-0.180891,1,Slow,3.7,"('Type2',)",ubitricity
d237300c51703c724af3c76474828fb2,51.494342,-0.201089,1,Slow,3.7,"('Type2',)",ubitricity
7b4184899f8b788841fb3eaf29177fdc,51.48959,-0.18949,1,Slow,5.0,"('Type2',)",ubitricity
1084a3edba56e7dacbe605f9e3aae4a6,51.49735,-0.183712,1,Slow,3.7,"('Type2',)",ubitricity
b0ab7c161bf3a9e1bf42ae864329d568,51.494711,-0.157587,1,Slow,3.7,"('Type2',)",ubitricity
43387760bfe76b71257771d68cfb60ee,51.497887,-0.192612,1,Slow,3.7,"('Type2',)",ubitricity
5fa56c89cbeb4563e37f61c2c64a5a1f,51.496894,-0.162388,1,Slow,3.7,"('Type2',)",ubitricity
4ab4abfa9a64dfa84fc78d95d091291a,51.495742,-0.157238,1,Slow,3.7,"('Type2',)",ubitricity
c2991757470f8f805c5228c0213999fa,51.490789,-0.143675,1,Slow,3.7,"('Type2',)",ubitricity
e376ca757c1ebdfbca96615bf71247bb,51.496895,-0.128714,1,Slow,3.7,"('Type2',)",ubitricity
ae122d4ef76f6ebb1d14a3ff5db14c2c,51.517989,-0.15805,1,Slow,3.7,"('Type2',)",ubitricity
25fe89d98c7f1682a6fcd392e864a45c,51.521864,-0.149935,1,Slow,3.7,"('Type2',)",ubitricity
7841424a7cd1f6c46be088f55a073b16,51.501263,-0.170075,1,Slow,3.7,"('Type2',)",ubitricity
5dc57908816a2b2ae2d7b9315a422ba0,51.516821,-0.152165,1,Slow,3.7,"('Type2',)",ubitricity
afea4b64e0e502a959e91075fcb384c6,51.4909,-0.12871,1,Slow,3.7,"('Type2',)",ubitricity
b46ff064a7b91ca1241d4f7596310756,51.495249,-0.134985,1,Slow,3.7,"('Type2',)",ubitricity
e8178c002b76d3bc689a4a249c72bd68,51.496731,-0.132808,1,Slow,3.7,"('Type2',)",ubitricity
3acd7067cfeb093e13ffa3f020dbbddc,51.487361,-0.144188,1,Slow,3.7,"('Type2',)",ubitricity
6d52c560fac83caa4fc177e3290f15f9,51.519591,-0.14255,1,Slow,3.7,"('Type2',)",ubitricity
9f75fdb0c2b57cbee835ade9f64ce981,51.525052,-0.165058,1,Slow,3.7,"('Type2',)",ubitricity
d0dc2bf7402ef8c264197e6b56b20092,51.52532,-0.163606,1,Slow,3.7,"('Type2',)",ubitricity
dcda828ae5b18f261216974d1fa509a6,51.522431,-0.158852,1,Slow,3.7,"('Type2',)",ubitricity
2a3ae9aa385873f41d3c3bf4a24bbea9,51.521294,-0.1657,1,Slow,3.7,"('Type2',)",ubitricity
196417dcee040658875647a566d33f1b,51.52529,-0.163088,1,Slow,3.7,"('Type2',)",ubitricity
8186ed7b0e7277a5b78dcd32c59f4a59,51.490018,-0.150224,1,Slow,3.7,"('Type2',)",ubitricity
0ddf1b440eaeb5732332bf2e58d2c7e8,51.487477,-0.144162,1,Slow,3.7,"('Type2',)",ubitricity
cd267f07a2366e7652d9bebb35c11798,51.517152,-0.156784,1,Slow,3.7,"('Type2',)",ubitricity
7697c45d6dc3194976988b9933ab0983,51.486555,-0.145418,1,Slow,3.7,"('Type2',)",ubitricity
83e33e33f6924b9ee5526b6ed9c2eb38,51.490078,-0.14206,1,Slow,3.7,"('Type2',)",ubitricity
779a30196f1fb5d49e16eae7149e5c22,51.510936,-0.150825,1,Slow,3.7,"('Type2',)",ubitricity
467a4e0f51cb99464282ed1849314d34,51.487643,-0.143631,1,Slow,3.7,"('Type2',)",ubitricity
1bda9024c96efb3d75384e46dc21cf36,51.490389,-0.143085,1,Slow,3.7,"('Type2',)",ubitricity
21d9f88eb4894c806bed7a416ef0b9a9,51.491413,-0.142879,1,Slow,3.7,"('Type2',)",ubitricity
990d1d945dad7f182cdc4f51960c1fc5,51.525179,-0.164325,1,Slow,3.7,"('Type2',)",ubitricity
a73921413f345d23f9679a0678fce5c1,51.494395,-0.151925,1,Slow,3.7,"('Type2',)",ubitricity
c3ff4b2cf6f15f3b0c5427e342e43920,51.495541,-0.152018,1,Slow,3.7,"('Type2',)",ubitricity
1256a280abab9e91c84614516a4d6068,51.525108,-0.164733,1,Slow,3.7,"('Type2',)",ubitricity
361fa68d48a385fd9ca5b42b414844c6,51.491973,-0.150077,1,Slow,3.7,"('Type2',)",ubitricity
e07aeb77b20bd1a24b96a26369ad7139,51.512844,-0.143349,1,Slow,3.7,"('Type2',)",ubitricity
3aca62adf17c838f9c55c3e61d1cb88c,51.487963,-0.144014,1,Slow,3.7,"('Type2',)",ubitricity
313a1b61941e68378c5c7e184b03d22f,51.49638,-0.146972,1,Slow,3.7,"('Type2',)",ubitricity
0024bd2092a4f3eaa6bd8c1728d3e007,51.491579,-0.14196,1,Slow,3.7,"('Type2',)",ubitricity
692ed49d55a3227f0e9a4a2f71718354,51.525153,-0.163859,1,Slow,3.7,"('Type2',)",ubitricity
81fdd8c49acc08071d602e11cb68f3ce,51.522376,-0.167193,1,Slow,3.7,"('Type2',)",ubitricity
9aa7669e27dc86596f73a2fbacab9045,51.476609,-0.189203,1,Slow,3.7,"('Type2',)",ubitricity
d44cb4b8a9fe81b7f04524d0a604e00d,51.485319,-0.205348,1,Slow,3.7,"('Type2',)",ubitricity
49f4ffcfe660d700980a3ed4bd06505c,51.47282,-0.218401,1,Slow,3.7,"('Type2',)",ubitricity
14383b4f9a2a53d6188649767859e055,51.485357,-0.198248,1,Slow,3.7,"('Type2',)",ubitricity
4e496c8eeb678cb8d5ba85347fdfdbe4,51.499127,-0.231976,1,Slow,3.7,"('Type2',)",ubitricity
7bb62fc652665e464a50dbebdf05abe8,51.498217,-0.220962,1,Slow,3.7,"('Type2',)",ubitricity
6fce0ce6c284cdd08d37838ddc57759c,51.473473,-0.218889,1,Slow,3.7,"('Type2',)",ubitricity
64b3addf459c502d536cd46d3fbf8cae,51.475492,-0.208851,1,Slow,3.7,"('Type2',)",ubitricity
b830abbbf17f535a29a468072f1f7bf5,51.47311,-0.215671,1,Slow,3.7,"('Type2',)",ubitricity
9c8b7f4996dec5bf03dff3f3f09b07f1,51.499319,-0.219282,1,Slow,3.7,"('Type2',)",ubitricity
82140f4642c76a33a8adcf8cd668e21b,51.483697,-0.212057,1,Slow,3.7,"('Type2',)",ubitricity
72a36e8158ffceef8dc28aae2880f440,51.480168,-0.205144,1,Slow,3.7,"('Type2',)",ubitricity
ccfdb67da64389ec771672e80bdbdd27,51.488236,-0.222386,1,Slow,3.7,"('Type2',)",ubitricity
2d4c69b6107fa84cede4e641bd26bc8b,51.483408,-0.211892,1,Slow,3.7,"('Type2',)",ubitricity
28b7a434fbbc5874751a84cc0b56de68,51.476516,-0.18855,1,Slow,3.7,"('Type2',)",ubitricity
b91207cb071bb37e6812a82a0ddfcef1,51.498201,-0.220962,1,Slow,3.7,"('Type2',)",ubitricity
da2284b53b028e6fb26f34f3d06d38e4,51.478707,-0.220349,1,Slow,3.7,"('Type2',)",ubitricity
75d6b9975ef4f62e221cefec725671e5,51.474154,-0.204764,1,Slow,3.7,"('Type2',)",ubitricity
ef0f44555e017be7fcb7e14b3118ee71,51.473296,-0.198735,1,Slow,3.7,"('Type2',)",ubitricity
2146c16ba0c440c7e527a59a2111440c,51.480311,-0.212003,1,Slow,3.7,"('Type2',)",ubitricity
7ec6e2c098e5b8cc247b3d953d5faca2,51.49808,-0.211519,1,Slow,3.7,"('Type2',)",ubitricity
671180893e01ba65f0fbc639362b87f7,51.470253,-0.19086,1,Slow,3.7,"('Type2',)",ubitricity
296c866ac2e9272543e9ff182d7de5a9,51.496876,-0.232429,1,Slow,3.7,"('Type2',)",ubitricity
669e438da787f1f50c0f7045e93c757b,51.489769,-0.211185,1,Slow,3.7,"('Type2',)",ubitricity
676d89913da03460e9ebf83715aff151,51.500701,-0.214671,1,Slow,3.7,"('Type2',)",ubitricity
aa3063a06005f8031bb8d7a84edf0a74,51.484243,-0.212431,1,Slow,3.7,"('Type2',)",ubitricity
bffdd48dbf595d43093e11cfdd6a3048,51.500537,-0.214393,1,Slow,3.7,"('Type2',)",ubitricity
db4f084e914385e578364fa4eebe3bec,51.489868,-0.208269,1,Slow,3.7,"('Type2',)",ubitricity
4c1e76e449f58259197151381b3122b4,51.476136,-0.196533,1,Slow,3.7,"('Type2',)",ubitricity
7889147ca3a3bfbfd59135f070e03efb,51.477182,-0.213654,1,Slow,3.7,"('Type2',)",ubitricity
f24dcd73175c848e12e6eb3a2d085888,51.479553,-0.220875,1,Slow,3.7,"('Type2',)",ubitricity
f7fabb7bd77cc4d7b1c12353929bc7d0,51.483779,-0.209953,1,Slow,3.7,"('Type2',)",ubitricity
f3dbbbd19abcf04e546592b5448f996c,51.499839,-0.213604,1,Slow,3.7,"('Type2',)",ubitricity
8f9d6a805fe4b60281ff631a6cbcda67,51.478957,-0.207356,1,Slow,3.7,"('Type2',)",ubitricity
b7d7b7eecf8f33fe3443bf4b36bfc5b7,51.474286,-0.196468,1,Slow,3.7,"('Type2',)",ubitricity
929b0d542527c6c06c5368c0b75f5998,51.499509,-0.228975,1,Slow,3.7,"('Type2',)",ubitricity
47c6a6de81a6455ffc4edcb8d52d140e,51.487456,-0.208034,1,Slow,3.7,"('Type2',)",ubitricity
9ecf898a40dac65f45e0e39221d940b2,51.48914,-0.219296,1,Slow,3.7,"('Type2',)",ubitricity
